FacilityID,URL,Name,FacilityType,Address1,Town,State,AddressNote,Latitude,Longitude,Parking,ParkingAccessible,ParkingNote,KeyRequired,MLAK24,MLAKAfterHours,PaymentRequired,AccessNote,AdultChange,ChangingPlaces,BYOSling,ACShower,ACMLAK,AdultChangeNote,BabyChange,BabyCareRoom,BabyChangeNote,DumpPoint,DPWashout,DPAfterHours,DumpPointNote,OpeningHours,OpeningHoursNote,Male,Female,Unisex,AllGender,Ambulant,Accessible,LHTransfer,RHTransfer,ToiletNote,SharpsDisposal,DrinkingWater,SanitaryDisposal,MensPadDisposal,Shower
1,https://toiletmap.gov.au/facility/1,Sandy Beach Reserve,Park or reserve,West Road,Bassendean,WA,,-31.921836,115.9502062,FALSE,FALSE,,FALSE,FALSE,FALSE,FALSE,,FALSE,FALSE,FALSE,FALSE,FALSE,,FALSE,FALSE,,FALSE,FALSE,FALSE,,OPEN: 24 hours,,TRUE,TRUE,FALSE,FALSE,FALSE,TRUE,FALSE,FALSE,,TRUE,FALSE,FALSE,FALSE,TRUE
2,https://toiletmap.gov.au/facility/2,Point Reserve,Park or reserve,North Road,Bassendean,WA,,-31.9044101,115.9609911,FALSE,FALSE,,FALSE,FALSE,FALSE,FALSE,,FALSE,FALSE,FALSE,FALSE,FALSE,,FALSE,FALSE,,FALSE,FALSE,FALSE,,OPEN: Daylight hours,,TRUE,TRUE,FALSE,FALSE,FALSE,TRUE,FALSE,FALSE,,FALSE,FALSE,FALSE,FALSE,FALSE
3,https://toiletmap.gov.au/facility/3,Success Hill Reserve,Park or reserve,Off Seventh Avenue,Bassendean,WA,,-31.89628865,115.955781,TRUE,TRUE,,FALSE,FALSE,FALSE,FALSE,,FALSE,FALSE,FALSE,FALSE,FALSE,,TRUE,FALSE,,FALSE,FALSE,FALSE,,OPEN: Daylight hours,,TRUE,TRUE,FALSE,FALSE,FALSE,TRUE,FALSE,FALSE,,TRUE,TRUE,FALSE,FALSE,TRUE
4,https://toiletmap.gov.au/facility/4,Jubilee Reserve,Park or reserve,Robinson Road,Eden Hill,WA,,-31.891474,115.9401637,FALSE,FALSE,,FALSE,FALSE,FALSE,FALSE,,FALSE,FALSE,FALSE,FALSE,FALSE,,FALSE,FALSE,,FALSE,FALSE,FALSE,,OPEN: Daylight hours,,TRUE,TRUE,FALSE,FALSE,FALSE,FALSE,FALSE,FALSE,,TRUE,FALSE,FALSE,FALSE,FALSE
5,https://toiletmap.gov.au/facility/5,Ashfield Reserve,Park or reserve,Guildford Road,Ashfield,WA,,-31.91343349,115.9364772,TRUE,TRUE,,FALSE,FALSE,FALSE,FALSE,,FALSE,FALSE,FALSE,FALSE,FALSE,,FALSE,FALSE,,FALSE,FALSE,FALSE,,OPEN: Daylight hours,,TRUE,TRUE,FALSE,FALSE,FALSE,FALSE,FALSE,FALSE,,TRUE,FALSE,FALSE,FALSE,FALSE
6,https://toiletmap.gov.au/facility/6,BIC Reserve,Park or reserve,"BIC Reserve, James Street",Bassendean,WA,,-31.90397769,115.9500707,TRUE,FALSE,,FALSE,FALSE,FALSE,FALSE,,FALSE,FALSE,FALSE,FALSE,FALSE,,FALSE,FALSE,,FALSE,FALSE,FALSE,,OPEN: Daylight hours,,TRUE,TRUE,FALSE,FALSE,FALSE,TRUE,FALSE,FALSE,,FALSE,FALSE,FALSE,FALSE,FALSE
7,https://toiletmap.gov.au/facility/7,Mary Crescent Reserve,Park or reserve,Mary Crescent,Eden Hill,WA,,-31.89036599,115.9480897,TRUE,TRUE,,FALSE,FALSE,FALSE,FALSE,,FALSE,FALSE,FALSE,FALSE,FALSE,,TRUE,FALSE,,FALSE,FALSE,FALSE,,OPEN: Daylight hours,,TRUE,TRUE,FALSE,FALSE,FALSE,FALSE,FALSE,FALSE,,FALSE,FALSE,FALSE,FALSE,FALSE
9,https://toiletmap.gov.au/facility/9,Bassendean Oval 3,Sporting facility,Old Perth Road,Bassendean,WA,,-31.90371581,115.9564902,FALSE,FALSE,,FALSE,FALSE,FALSE,FALSE,,FALSE,FALSE,FALSE,FALSE,FALSE,,FALSE,FALSE,,FALSE,FALSE,FALSE,,OPEN: Variable hours,,TRUE,TRUE,FALSE,FALSE,FALSE,TRUE,FALSE,FALSE,,FALSE,FALSE,FALSE,FALSE,FALSE
15,https://toiletmap.gov.au/facility/15,Apex Park,Park or reserve,Moranbah Access Road,Moranbah,QLD,,-22.01444418,148.0452418,TRUE,FALSE,,FALSE,FALSE,FALSE,FALSE,,FALSE,FALSE,FALSE,FALSE,FALSE,,FALSE,FALSE,,FALSE,FALSE,FALSE,,OPEN: 24 hours,,TRUE,TRUE,FALSE,FALSE,FALSE,FALSE,FALSE,FALSE,,FALSE,FALSE,FALSE,FALSE,FALSE
16,https://toiletmap.gov.au/facility/16,Lions Park,Park or reserve,12 Belyando Avenue,Moranbah,QLD,,-21.9993408,148.0439733,TRUE,FALSE,"Parking is available on Belyando Avenue, then a short walk into the park to access the toilet",FALSE,FALSE,FALSE,FALSE,,FALSE,FALSE,FALSE,FALSE,FALSE,,FALSE,FALSE,,FALSE,FALSE,FALSE,,OPEN: 24 hours,,TRUE,TRUE,FALSE,FALSE,FALSE,FALSE,FALSE,FALSE,,FALSE,FALSE,FALSE,FALSE,FALSE
17,https://toiletmap.gov.au/facility/17,Parella Street,Park or reserve,Parella Street,Moranbah,QLD,,-22.0001525,148.0486159,TRUE,FALSE,,FALSE,FALSE,FALSE,FALSE,,FALSE,FALSE,FALSE,FALSE,FALSE,,FALSE,FALSE,,FALSE,FALSE,FALSE,,OPEN: 24 hours,,TRUE,TRUE,FALSE,FALSE,FALSE,TRUE,FALSE,FALSE,,FALSE,FALSE,FALSE,FALSE,TRUE
18,https://toiletmap.gov.au/facility/18,Nolan Park,Park or reserve,Yeates Street,Moranbah,QLD,,-22.00330089,148.0661184,TRUE,FALSE,On street parking available,FALSE,FALSE,FALSE,FALSE,,FALSE,FALSE,FALSE,FALSE,FALSE,,FALSE,FALSE,,FALSE,FALSE,FALSE,,OPEN: 24 hours,,FALSE,FALSE,TRUE,FALSE,FALSE,FALSE,FALSE,FALSE,,FALSE,FALSE,FALSE,FALSE,FALSE
20,https://toiletmap.gov.au/facility/20,Binda Park,Park or reserve,34 Grosvenor Drive,Moranbah,QLD,,-22.00496595,148.037042,TRUE,FALSE,"Parking is available at the other end of the park from Isaac Way, heading towards Goonyella Road",FALSE,FALSE,FALSE,FALSE,,FALSE,FALSE,FALSE,FALSE,FALSE,,TRUE,FALSE,,FALSE,FALSE,FALSE,,OPEN: 24 hours,,FALSE,FALSE,FALSE,FALSE,FALSE,TRUE,FALSE,FALSE,,FALSE,FALSE,FALSE,FALSE,FALSE
21,https://toiletmap.gov.au/facility/21,Spring Park,Park or reserve,Samson Street,Clermont,QLD,,-22.83389032,147.6285954,FALSE,FALSE,,FALSE,FALSE,FALSE,FALSE,,FALSE,FALSE,FALSE,FALSE,FALSE,,FALSE,FALSE,,FALSE,FALSE,FALSE,,OPEN: 24 hours,,TRUE,TRUE,FALSE,FALSE,FALSE,FALSE,FALSE,FALSE,,FALSE,FALSE,FALSE,FALSE,FALSE
22,https://toiletmap.gov.au/facility/22,Lions Park,Park or reserve,Copperfield Road,Clermont,QLD,,-22.83004599,147.6280868,FALSE,FALSE,,FALSE,FALSE,FALSE,FALSE,,FALSE,FALSE,FALSE,FALSE,FALSE,,FALSE,FALSE,,FALSE,FALSE,FALSE,,OPEN: 24 hours,,TRUE,TRUE,FALSE,FALSE,FALSE,FALSE,FALSE,FALSE,,FALSE,FALSE,FALSE,FALSE,FALSE
23,https://toiletmap.gov.au/facility/23,Drummond Street,Park or reserve,Drummond Street,Clermont,QLD,,-22.81719492,147.6423012,FALSE,FALSE,,FALSE,FALSE,FALSE,FALSE,,FALSE,FALSE,FALSE,FALSE,FALSE,,FALSE,FALSE,,FALSE,FALSE,FALSE,,OPEN: 24 hours,,TRUE,TRUE,FALSE,FALSE,FALSE,FALSE,FALSE,FALSE,,FALSE,FALSE,FALSE,FALSE,FALSE
24,https://toiletmap.gov.au/facility/24,Centenary Park,Park or reserve,Lime Street,Clermont,QLD,,-22.81908571,147.6447365,FALSE,FALSE,,FALSE,FALSE,FALSE,FALSE,,FALSE,FALSE,FALSE,FALSE,FALSE,,FALSE,FALSE,,FALSE,FALSE,FALSE,,OPEN: 24 hours,,TRUE,TRUE,FALSE,FALSE,FALSE,FALSE,FALSE,FALSE,,FALSE,FALSE,FALSE,FALSE,FALSE
25,https://toiletmap.gov.au/facility/25,Capella Street,Park or reserve,Capella Street,Clermont,QLD,,-22.82389777,147.6410069,FALSE,FALSE,,FALSE,FALSE,FALSE,FALSE,,FALSE,FALSE,FALSE,FALSE,FALSE,,FALSE,FALSE,,FALSE,FALSE,FALSE,,OPEN: 24 hours,,TRUE,TRUE,FALSE,FALSE,FALSE,FALSE,FALSE,FALSE,,FALSE,FALSE,FALSE,FALSE,FALSE
26,https://toiletmap.gov.au/facility/26,East Palmerston,Other,2068E Palmerston Highway,East Palmerston,QLD,,-17.60595421,145.8471293,TRUE,FALSE,,FALSE,FALSE,FALSE,FALSE,,FALSE,FALSE,FALSE,FALSE,FALSE,,FALSE,FALSE,,FALSE,FALSE,FALSE,,OPEN: 24 hours,,TRUE,TRUE,FALSE,FALSE,FALSE,FALSE,FALSE,FALSE,,FALSE,FALSE,FALSE,FALSE,FALSE
28,https://toiletmap.gov.au/facility/28,Fred Drew Park,Park or reserve,Palmerston Drive,Hudson,QLD,,-17.51502477,145.9937873,FALSE,FALSE,,FALSE,FALSE,FALSE,FALSE,,FALSE,FALSE,FALSE,FALSE,FALSE,,FALSE,FALSE,,FALSE,FALSE,FALSE,,OPEN: 24 hours,,TRUE,TRUE,FALSE,FALSE,FALSE,FALSE,FALSE,FALSE,,FALSE,FALSE,FALSE,FALSE,FALSE
29,https://toiletmap.gov.au/facility/29,Anzac Park,Park or reserve,Edith Street,Innisfail,QLD,,-17.52406506,146.0278857,FALSE,FALSE,,FALSE,FALSE,FALSE,FALSE,,FALSE,FALSE,FALSE,FALSE,FALSE,,FALSE,FALSE,,FALSE,FALSE,FALSE,,OPEN: 24 hours,,TRUE,TRUE,FALSE,FALSE,FALSE,TRUE,FALSE,FALSE,,FALSE,FALSE,FALSE,FALSE,FALSE
30,https://toiletmap.gov.au/facility/30,Jack Fossey Park,Park or reserve,Benwell Street,Innisfail,QLD,,-17.52355834,146.0325387,FALSE,FALSE,,FALSE,FALSE,FALSE,FALSE,,FALSE,FALSE,FALSE,FALSE,FALSE,,FALSE,FALSE,,FALSE,FALSE,FALSE,,OPEN: 24 hours,,TRUE,TRUE,FALSE,FALSE,FALSE,FALSE,FALSE,FALSE,,FALSE,FALSE,FALSE,FALSE,FALSE
31,https://toiletmap.gov.au/facility/31,Fitzgerald Park,Park or reserve,70 Fitzgerald Esplanade,Innisfail,QLD,,-17.51994615,146.0311638,FALSE,FALSE,,FALSE,FALSE,FALSE,FALSE,,FALSE,FALSE,FALSE,FALSE,FALSE,,FALSE,FALSE,,FALSE,FALSE,FALSE,,OPEN: 24 hours,,TRUE,TRUE,FALSE,FALSE,FALSE,FALSE,FALSE,FALSE,,FALSE,FALSE,FALSE,FALSE,FALSE
33,https://toiletmap.gov.au/facility/33,Warrina Lakes,Park or reserve,Emily Street,Innisfail,QLD,,-17.51839405,146.0246337,FALSE,FALSE,,FALSE,FALSE,FALSE,FALSE,,FALSE,FALSE,FALSE,FALSE,FALSE,,FALSE,FALSE,,FALSE,FALSE,FALSE,,OPEN: 10am-6pm,,TRUE,TRUE,FALSE,FALSE,FALSE,TRUE,FALSE,FALSE,,FALSE,FALSE,FALSE,FALSE,FALSE
35,https://toiletmap.gov.au/facility/35,Coconuts,Park or reserve,30 The Esplanade,Coconuts,QLD,,-17.50715757,146.0648743,FALSE,FALSE,,FALSE,FALSE,FALSE,FALSE,,FALSE,FALSE,FALSE,FALSE,FALSE,,FALSE,FALSE,,FALSE,FALSE,FALSE,,OPEN: 24 hours,,TRUE,TRUE,FALSE,FALSE,FALSE,FALSE,FALSE,FALSE,,FALSE,FALSE,FALSE,FALSE,FALSE
36,https://toiletmap.gov.au/facility/36,Flying Fish Point 2,Park or reserve,"Esplanade, Scheu Park",Flying Fish Point,QLD,,-17.50206605,146.0762983,FALSE,FALSE,,FALSE,FALSE,FALSE,FALSE,,FALSE,FALSE,FALSE,FALSE,FALSE,,FALSE,FALSE,,FALSE,FALSE,FALSE,,OPEN: 24 hours,,TRUE,TRUE,FALSE,FALSE,FALSE,FALSE,FALSE,FALSE,,FALSE,FALSE,FALSE,FALSE,FALSE
37,https://toiletmap.gov.au/facility/37,Corso,Other,The Corso,East Innisfail,QLD,,-17.52522468,146.0353181,FALSE,FALSE,,FALSE,FALSE,FALSE,FALSE,,FALSE,FALSE,FALSE,FALSE,FALSE,,FALSE,FALSE,,FALSE,FALSE,FALSE,,OPEN: 24 hours,,TRUE,TRUE,FALSE,FALSE,FALSE,FALSE,FALSE,FALSE,,FALSE,FALSE,FALSE,FALSE,FALSE
38,https://toiletmap.gov.au/facility/38,Wrights Park,Park or reserve,Sherwood Street,East Innisfail,QLD,,-17.52870492,146.039882,FALSE,FALSE,,FALSE,FALSE,FALSE,FALSE,,FALSE,FALSE,FALSE,FALSE,FALSE,,FALSE,FALSE,,FALSE,FALSE,FALSE,,OPEN: 24 hours,,TRUE,TRUE,FALSE,FALSE,FALSE,FALSE,FALSE,FALSE,,FALSE,FALSE,FALSE,FALSE,FALSE
39,https://toiletmap.gov.au/facility/39,Castor Park,Park or reserve,Castor Street,Mourilyan Harbour,QLD,,-17.58434935,146.0404424,FALSE,FALSE,,FALSE,FALSE,FALSE,FALSE,,FALSE,FALSE,FALSE,FALSE,FALSE,,FALSE,FALSE,,FALSE,FALSE,FALSE,,OPEN: 24 hours,,TRUE,TRUE,FALSE,FALSE,FALSE,TRUE,FALSE,FALSE,,FALSE,FALSE,FALSE,FALSE,FALSE
41,https://toiletmap.gov.au/facility/41,South Johnstone,Park or reserve,Enright Street,South Johnstone,QLD,,-17.59462436,145.9983923,FALSE,FALSE,,FALSE,FALSE,FALSE,FALSE,,FALSE,FALSE,FALSE,FALSE,FALSE,,FALSE,FALSE,,FALSE,FALSE,FALSE,,OPEN: 24 hours,,TRUE,TRUE,FALSE,FALSE,FALSE,FALSE,FALSE,FALSE,,FALSE,FALSE,FALSE,FALSE,FALSE
42,https://toiletmap.gov.au/facility/42,Mena Creek Road,Park or reserve,Cane Cutter Way,Germantown,QLD,,-17.65462056,145.9567305,FALSE,FALSE,,FALSE,FALSE,FALSE,FALSE,,FALSE,FALSE,FALSE,FALSE,FALSE,,FALSE,FALSE,,FALSE,FALSE,FALSE,,OPEN: 24 hours,,TRUE,TRUE,FALSE,FALSE,FALSE,FALSE,FALSE,FALSE,,FALSE,FALSE,FALSE,FALSE,FALSE
43,https://toiletmap.gov.au/facility/43,Japoonvale,Other,Innisfail Japoon Rd,Japoonvale,QLD,,-17.72507368,145.9314617,FALSE,FALSE,,FALSE,FALSE,FALSE,FALSE,,FALSE,FALSE,FALSE,FALSE,FALSE,,FALSE,FALSE,,FALSE,FALSE,FALSE,,OPEN: 24 hours,,TRUE,TRUE,FALSE,FALSE,FALSE,FALSE,FALSE,FALSE,,FALSE,FALSE,FALSE,FALSE,FALSE
44,https://toiletmap.gov.au/facility/44,Sharpe Park,Park or reserve,Polich Road,Germantown,QLD,,-17.66090163,145.962462,FALSE,FALSE,,FALSE,FALSE,FALSE,FALSE,,FALSE,FALSE,FALSE,FALSE,FALSE,,FALSE,FALSE,,FALSE,FALSE,FALSE,,OPEN: 24 hours,,TRUE,TRUE,FALSE,FALSE,FALSE,FALSE,FALSE,FALSE,,FALSE,FALSE,FALSE,FALSE,FALSE
47,https://toiletmap.gov.au/facility/47,Kurrimine Beach,Beach,Robert Johnstone Parade,Kurrimine Beach,QLD,,-17.77664389,146.1081736,FALSE,FALSE,,FALSE,FALSE,FALSE,FALSE,,FALSE,FALSE,FALSE,FALSE,FALSE,,FALSE,FALSE,,FALSE,FALSE,FALSE,,OPEN: 24 hours,,TRUE,TRUE,FALSE,FALSE,FALSE,FALSE,FALSE,FALSE,,FALSE,FALSE,FALSE,FALSE,FALSE
48,https://toiletmap.gov.au/facility/48,Cowley Beach,Beach,Barakaoan Road,Cowley Beach,QLD,,-17.69539499,146.1118707,FALSE,FALSE,,FALSE,FALSE,FALSE,FALSE,,FALSE,FALSE,FALSE,FALSE,FALSE,,FALSE,FALSE,,FALSE,FALSE,FALSE,,OPEN: 24 hours,,TRUE,TRUE,FALSE,FALSE,FALSE,FALSE,FALSE,FALSE,,FALSE,FALSE,FALSE,FALSE,FALSE
49,https://toiletmap.gov.au/facility/49,Digger Creek,Park or reserve,Bruce Highway,El Arish,QLD,,-17.79569638,146.0107628,FALSE,FALSE,,FALSE,FALSE,FALSE,FALSE,,FALSE,FALSE,FALSE,FALSE,FALSE,,FALSE,FALSE,,FALSE,FALSE,FALSE,,OPEN: 24 hours,,TRUE,TRUE,FALSE,FALSE,FALSE,FALSE,FALSE,FALSE,,FALSE,FALSE,FALSE,FALSE,FALSE
50,https://toiletmap.gov.au/facility/50,Returned Services League Club,Other,Royston Street,El Arish,QLD,,-17.80691645,146.0044798,FALSE,FALSE,,FALSE,FALSE,FALSE,FALSE,,FALSE,FALSE,FALSE,FALSE,FALSE,,FALSE,FALSE,,FALSE,FALSE,FALSE,,OPEN: 24 hours,,TRUE,TRUE,FALSE,FALSE,FALSE,FALSE,FALSE,FALSE,,FALSE,FALSE,FALSE,FALSE,FALSE
51,https://toiletmap.gov.au/facility/51,Village Green,Park or reserve,Central Avenue,Mission Beach,QLD,,-17.8691984,146.106737,FALSE,FALSE,,FALSE,FALSE,FALSE,FALSE,,FALSE,FALSE,FALSE,FALSE,FALSE,,FALSE,FALSE,,FALSE,FALSE,FALSE,,OPEN: 24 hours,,TRUE,TRUE,FALSE,FALSE,FALSE,TRUE,FALSE,FALSE,,FALSE,FALSE,FALSE,FALSE,FALSE
52,https://toiletmap.gov.au/facility/52,Stinger Net,Car park,Seaview Street,Mission Beach,QLD,,-17.871178,146.1066188,FALSE,FALSE,,FALSE,FALSE,FALSE,FALSE,,FALSE,FALSE,FALSE,FALSE,FALSE,,FALSE,FALSE,,FALSE,FALSE,FALSE,,OPEN: 24 hours,,TRUE,TRUE,FALSE,FALSE,FALSE,TRUE,FALSE,FALSE,,FALSE,FALSE,FALSE,FALSE,FALSE
56,https://toiletmap.gov.au/facility/56,Cutten Street,Other,Cutten Street,Bingil Bay,QLD,,-17.83093616,146.099498,FALSE,FALSE,,FALSE,FALSE,FALSE,FALSE,,FALSE,FALSE,FALSE,FALSE,FALSE,,FALSE,FALSE,,FALSE,FALSE,FALSE,,OPEN: 24 hours,,TRUE,TRUE,FALSE,FALSE,FALSE,FALSE,FALSE,FALSE,,FALSE,FALSE,FALSE,FALSE,FALSE
57,https://toiletmap.gov.au/facility/57,Camp Area,Camping ground,Bingil Bay Road,Bingil Bay,QLD,,-17.82990204,146.0997934,FALSE,FALSE,,FALSE,FALSE,FALSE,FALSE,,FALSE,FALSE,FALSE,FALSE,FALSE,,FALSE,FALSE,,FALSE,FALSE,FALSE,,OPEN: 24 hours,,TRUE,TRUE,FALSE,FALSE,FALSE,FALSE,FALSE,FALSE,,FALSE,FALSE,FALSE,FALSE,FALSE
58,https://toiletmap.gov.au/facility/58,Marc Park,Park or reserve,Tully - Mission Beach Road,Mission Beach,QLD,,-17.87259629,146.0922595,FALSE,FALSE,,FALSE,FALSE,FALSE,FALSE,,FALSE,FALSE,FALSE,FALSE,FALSE,,FALSE,FALSE,,FALSE,FALSE,FALSE,,OPEN: 24 hours,,TRUE,TRUE,FALSE,FALSE,FALSE,FALSE,FALSE,FALSE,,FALSE,FALSE,FALSE,FALSE,FALSE
60,https://toiletmap.gov.au/facility/60,Mourilyan Harbour,Other,Off Johnstone Street,Mourilyan Harbour,QLD,,-17.59892284,146.1255684,FALSE,FALSE,,FALSE,FALSE,FALSE,FALSE,,FALSE,FALSE,FALSE,FALSE,FALSE,,FALSE,FALSE,,FALSE,FALSE,FALSE,,OPEN: 24 hours,,TRUE,TRUE,FALSE,FALSE,FALSE,TRUE,FALSE,FALSE,,FALSE,FALSE,FALSE,FALSE,FALSE
61,https://toiletmap.gov.au/facility/61,Innisfail Cemetery,Cemetery,Clare Street,Mighell,QLD,,-17.53188869,146.0275536,FALSE,FALSE,,FALSE,FALSE,FALSE,FALSE,,FALSE,FALSE,FALSE,FALSE,FALSE,,FALSE,FALSE,,FALSE,FALSE,FALSE,,OPEN: 24 hours,,TRUE,TRUE,FALSE,FALSE,FALSE,TRUE,FALSE,FALSE,,FALSE,FALSE,FALSE,FALSE,FALSE
65,https://toiletmap.gov.au/facility/65,Alan Anderson Park,Park or reserve,180 Lawnbrook Road West,Walliston,WA,,-32.00634,116.08274,TRUE,FALSE,,FALSE,FALSE,FALSE,FALSE,,FALSE,FALSE,FALSE,FALSE,FALSE,,FALSE,FALSE,,FALSE,FALSE,FALSE,,OPEN: 24 hours,,FALSE,FALSE,FALSE,TRUE,FALSE,FALSE,FALSE,FALSE,,FALSE,FALSE,FALSE,FALSE,FALSE
67,https://toiletmap.gov.au/facility/67,Pickering Brook,Other,241 Pickering Brook Road,Pickering Brook,WA,,-32.03479483,116.1318301,TRUE,TRUE,,FALSE,FALSE,FALSE,FALSE,,FALSE,FALSE,FALSE,FALSE,FALSE,,FALSE,FALSE,,FALSE,FALSE,FALSE,,OPEN: 24 hours,,TRUE,TRUE,FALSE,FALSE,FALSE,TRUE,FALSE,TRUE,Also 1 x Electric BBQ and Picnic Table,FALSE,TRUE,FALSE,FALSE,FALSE
68,https://toiletmap.gov.au/facility/68,Kalamunda Bus Station,Bus station,19A Mead Street,Kalamunda,WA,,-31.97400015,116.0574227,TRUE,FALSE,,FALSE,FALSE,FALSE,FALSE,,FALSE,FALSE,FALSE,FALSE,FALSE,,FALSE,FALSE,,FALSE,FALSE,FALSE,,OPEN: 24 hours,,TRUE,TRUE,FALSE,FALSE,FALSE,FALSE,FALSE,FALSE,,FALSE,FALSE,FALSE,FALSE,FALSE
69,https://toiletmap.gov.au/facility/69,Fleming Reserve,Park or reserve,39 Sorensen Road,High Wycombe,WA,,-31.94465565,115.9960381,TRUE,TRUE,,FALSE,FALSE,FALSE,FALSE,,FALSE,FALSE,FALSE,FALSE,FALSE,,FALSE,FALSE,,FALSE,FALSE,FALSE,,OPEN: 24 hours,,TRUE,TRUE,FALSE,FALSE,FALSE,TRUE,TRUE,FALSE,"Not wheelchair accessible Electric BBQ's, 
Picnic Tables,
Skate Park
Play Ground
Sporting Oval",FALSE,FALSE,FALSE,FALSE,FALSE
70,https://toiletmap.gov.au/facility/70,Gooseberry Hill,Park or reserve,42 Ledger Road,Gooseberry Hill,WA,,-31.95614626,116.0578468,TRUE,FALSE,,FALSE,FALSE,FALSE,FALSE,Drive up the driveway to Gooseberry Hill Hall - toilets are on left hand side,FALSE,FALSE,FALSE,FALSE,FALSE,,FALSE,FALSE,,FALSE,FALSE,FALSE,,OPEN: 24 hours,,TRUE,TRUE,FALSE,FALSE,FALSE,FALSE,FALSE,FALSE,,FALSE,TRUE,FALSE,FALSE,FALSE
71,https://toiletmap.gov.au/facility/71,Hedley Jorgensen Park,Park or reserve,Crescent Road,Kalamunda,WA,,-31.97215644,116.064895,TRUE,FALSE,,FALSE,FALSE,FALSE,FALSE,,FALSE,FALSE,FALSE,FALSE,FALSE,,FALSE,FALSE,,FALSE,FALSE,FALSE,,OPEN: 24 hours,,TRUE,TRUE,FALSE,FALSE,FALSE,FALSE,FALSE,FALSE,Not accessible to wheelchairs Located in former golf course which has been turned into an off leash dog exercise area - great location with BBQ and playground facilities nearby,FALSE,TRUE,FALSE,FALSE,FALSE
72,https://toiletmap.gov.au/facility/72,Kalamunda Library,Community building,7 Williams Street,Kalamunda,WA,Toilets are located outside of the library.,-31.97093917,116.0600369,TRUE,TRUE,,FALSE,FALSE,FALSE,FALSE,,FALSE,FALSE,FALSE,FALSE,FALSE,,TRUE,FALSE,,FALSE,FALSE,FALSE,,"OPEN: May-Sep 6am-6pm, Oct-Apr 6am-9pm",Facilities open during Library hours,TRUE,TRUE,FALSE,FALSE,TRUE,FALSE,FALSE,FALSE,,FALSE,TRUE,FALSE,FALSE,FALSE
74,https://toiletmap.gov.au/facility/74,Lesmurdie Falls,Park or reserve,Falls Road,Lesmurdie,WA,,-31.99553312,116.0337223,TRUE,FALSE,,FALSE,FALSE,FALSE,FALSE,,FALSE,FALSE,FALSE,FALSE,FALSE,,FALSE,FALSE,,FALSE,FALSE,FALSE,,OPEN: 24 hours,,TRUE,TRUE,FALSE,FALSE,FALSE,FALSE,FALSE,FALSE,,FALSE,FALSE,FALSE,FALSE,FALSE
76,https://toiletmap.gov.au/facility/76,Maida Vale Reserve,Sporting facility,35 Acacia Road,Maida Vale,WA,,-31.94915366,116.0263891,TRUE,FALSE,,FALSE,FALSE,FALSE,FALSE,,FALSE,FALSE,FALSE,FALSE,FALSE,,FALSE,FALSE,,FALSE,FALSE,FALSE,,OPEN: 24 hours,,TRUE,TRUE,FALSE,FALSE,FALSE,FALSE,FALSE,FALSE,,FALSE,FALSE,FALSE,FALSE,FALSE
78,https://toiletmap.gov.au/facility/78,Stirk Park,Park or reserve,18 Kalamunda Road,Kalamunda,WA,,-31.96927928,116.0547962,TRUE,TRUE,,FALSE,FALSE,FALSE,FALSE,Disabled toilet restricted access. 6am - 9pm,FALSE,FALSE,FALSE,FALSE,FALSE,,FALSE,FALSE,,FALSE,FALSE,FALSE,,OPEN: Daylight hours,,TRUE,TRUE,FALSE,FALSE,FALSE,TRUE,TRUE,FALSE,"Large family park with BBQ facilities, playgrounds, sound shell and a swing for wheel chairs",TRUE,TRUE,FALSE,FALSE,FALSE
79,https://toiletmap.gov.au/facility/79,SKAMP Hall,Sporting facility,22 Falls Road,Lesmurdie,WA,,-31.9920893,116.0496666,TRUE,FALSE,,FALSE,FALSE,FALSE,FALSE,,FALSE,FALSE,FALSE,FALSE,FALSE,,FALSE,FALSE,,FALSE,FALSE,FALSE,,OPEN: 24 hours,,TRUE,TRUE,FALSE,FALSE,FALSE,FALSE,FALSE,FALSE,,FALSE,TRUE,FALSE,FALSE,FALSE
80,https://toiletmap.gov.au/facility/80,Town Hall Square,Other,5 Barber Street,Kalamunda,WA,,-31.97197326,116.0580103,TRUE,TRUE,,FALSE,FALSE,FALSE,FALSE,,FALSE,FALSE,FALSE,FALSE,FALSE,,FALSE,FALSE,,FALSE,FALSE,FALSE,,OPEN: 6:30am-9pm,,TRUE,TRUE,FALSE,FALSE,TRUE,FALSE,FALSE,FALSE,No wheelchair access,TRUE,TRUE,TRUE,FALSE,FALSE
82,https://toiletmap.gov.au/facility/82,Zephyrs Cafe,Food outlet,Riverside Road,East Fremantle,WA,,-32.02925052,115.7628393,TRUE,FALSE,,FALSE,FALSE,FALSE,FALSE,,FALSE,FALSE,FALSE,FALSE,FALSE,,FALSE,FALSE,,FALSE,FALSE,FALSE,,OPEN: Daylight hours,,TRUE,TRUE,FALSE,FALSE,FALSE,FALSE,FALSE,FALSE,,FALSE,FALSE,FALSE,FALSE,FALSE
85,https://toiletmap.gov.au/facility/85,Town Hall,Other,135 Canning Highway,East Fremantle,WA,,-32.04114943,115.7629389,TRUE,FALSE,,FALSE,FALSE,FALSE,FALSE,,FALSE,FALSE,FALSE,FALSE,FALSE,,FALSE,FALSE,,FALSE,FALSE,FALSE,,OPEN: Mon-Fri 8:30am-5pm,,TRUE,TRUE,FALSE,FALSE,FALSE,FALSE,FALSE,FALSE,,FALSE,FALSE,FALSE,FALSE,FALSE
86,https://toiletmap.gov.au/facility/86,Town Beach,Beach,Friedman Way,Exmouth,WA,,-21.9453106,114.1397015,TRUE,FALSE,,FALSE,FALSE,FALSE,FALSE,,FALSE,FALSE,FALSE,FALSE,FALSE,,FALSE,FALSE,,FALSE,FALSE,FALSE,,OPEN: 24 hours,,TRUE,TRUE,FALSE,FALSE,FALSE,FALSE,FALSE,FALSE,,FALSE,FALSE,FALSE,FALSE,TRUE
89,https://toiletmap.gov.au/facility/89,Ningaloo Centre,Other,Murat Road,Exmouth,WA,,-22.0190865,114.1117995,TRUE,TRUE,,TRUE,FALSE,FALSE,FALSE,,FALSE,FALSE,FALSE,FALSE,FALSE,,FALSE,FALSE,,FALSE,FALSE,FALSE,,OPEN: Daylight hours,Open during business hours,TRUE,TRUE,FALSE,FALSE,FALSE,TRUE,FALSE,FALSE,,FALSE,FALSE,FALSE,FALSE,FALSE
91,https://toiletmap.gov.au/facility/91,Dunes Beach,Beach,Yardie Creek Road,North West Cape,WA,,-21.80481026,114.1070542,TRUE,FALSE,,FALSE,FALSE,FALSE,FALSE,,FALSE,FALSE,FALSE,FALSE,FALSE,,FALSE,FALSE,,FALSE,FALSE,FALSE,,OPEN: 24 hours,,TRUE,TRUE,FALSE,FALSE,FALSE,TRUE,FALSE,FALSE,,FALSE,FALSE,FALSE,FALSE,FALSE
92,https://toiletmap.gov.au/facility/92,Tantabiddi Boat Ramp,Car park,Tantabiddy Access,North West Cape,WA,,-21.91244166,113.9792124,TRUE,FALSE,,FALSE,FALSE,FALSE,FALSE,,FALSE,FALSE,FALSE,FALSE,FALSE,,FALSE,FALSE,,FALSE,FALSE,FALSE,,OPEN: 24 hours,,FALSE,FALSE,TRUE,FALSE,FALSE,TRUE,FALSE,FALSE,,FALSE,FALSE,FALSE,FALSE,FALSE
93,https://toiletmap.gov.au/facility/93,Truck Stop,Other,57 Frew Street,Thargomindah,QLD,,-27.99442962,143.8211513,TRUE,FALSE,,FALSE,FALSE,FALSE,FALSE,,FALSE,FALSE,FALSE,FALSE,FALSE,,FALSE,FALSE,,FALSE,FALSE,FALSE,,OPEN: 24 hours,,FALSE,FALSE,TRUE,FALSE,FALSE,FALSE,FALSE,FALSE,,FALSE,TRUE,FALSE,FALSE,TRUE
94,https://toiletmap.gov.au/facility/94,Thargo Roadhouse,Service station,33 Stafford Street,Thargomindah,QLD,,-27.99442957,143.8228463,FALSE,FALSE,,FALSE,FALSE,FALSE,FALSE,,FALSE,FALSE,FALSE,FALSE,FALSE,,FALSE,FALSE,,FALSE,FALSE,FALSE,,OPEN: 24 hours,,TRUE,TRUE,FALSE,FALSE,FALSE,TRUE,FALSE,FALSE,,FALSE,FALSE,FALSE,FALSE,FALSE
95,https://toiletmap.gov.au/facility/95,Napunyah Caravan Park,Caravan park,45 Powell Street,Thargomindah,QLD,,-27.99712237,143.8252558,FALSE,FALSE,,FALSE,FALSE,FALSE,FALSE,,FALSE,FALSE,FALSE,FALSE,FALSE,,TRUE,FALSE,,FALSE,FALSE,FALSE,,OPEN: 24 hours,,TRUE,TRUE,FALSE,FALSE,FALSE,TRUE,TRUE,TRUE,,FALSE,FALSE,FALSE,FALSE,TRUE
97,https://toiletmap.gov.au/facility/97,Torrence Parade,Other,Torrence Parade,Hungerford,QLD,,-28.99604467,144.4106083,FALSE,FALSE,,FALSE,FALSE,FALSE,FALSE,,FALSE,FALSE,FALSE,FALSE,FALSE,,FALSE,FALSE,,FALSE,FALSE,FALSE,,OPEN: 24 hours,,TRUE,TRUE,FALSE,FALSE,FALSE,TRUE,FALSE,FALSE,,FALSE,FALSE,FALSE,FALSE,FALSE
99,https://toiletmap.gov.au/facility/99,William Simmons Memorial Park,Park or reserve,Gore Highway,Millmerran,QLD,,-27.87681745,151.2580584,FALSE,FALSE,,FALSE,FALSE,FALSE,FALSE,,FALSE,FALSE,FALSE,FALSE,FALSE,,FALSE,FALSE,,FALSE,FALSE,FALSE,,OPEN: 24 hours,,FALSE,FALSE,TRUE,FALSE,FALSE,FALSE,FALSE,FALSE,,FALSE,FALSE,FALSE,FALSE,FALSE
100,https://toiletmap.gov.au/facility/100,Bicentennial Park,Park or reserve,Factory Lane,Millmerran,QLD,,-27.87448115,151.2677834,FALSE,FALSE,,FALSE,FALSE,FALSE,FALSE,,FALSE,FALSE,FALSE,FALSE,FALSE,,FALSE,FALSE,,FALSE,FALSE,FALSE,,OPEN: Variable hours,Facilities are only open for special events,TRUE,TRUE,FALSE,FALSE,FALSE,FALSE,FALSE,FALSE,,FALSE,FALSE,FALSE,FALSE,FALSE
101,https://toiletmap.gov.au/facility/101,Anzac Memorial Park,Park or reserve,Charlotte Street,Millmerran,QLD,,-27.87502444,151.270011,FALSE,FALSE,,FALSE,FALSE,FALSE,FALSE,,FALSE,FALSE,FALSE,FALSE,FALSE,,FALSE,FALSE,,FALSE,FALSE,FALSE,,OPEN: 24 hours,,TRUE,TRUE,FALSE,FALSE,FALSE,TRUE,FALSE,FALSE,,FALSE,FALSE,FALSE,FALSE,FALSE
102,https://toiletmap.gov.au/facility/102,Lions Park,Park or reserve,Edward Street,Millmerran,QLD,,-27.87469842,151.2743574,FALSE,FALSE,,FALSE,FALSE,FALSE,FALSE,,FALSE,FALSE,FALSE,FALSE,FALSE,,FALSE,FALSE,,FALSE,FALSE,FALSE,,OPEN: 24 hours,,TRUE,TRUE,FALSE,FALSE,FALSE,FALSE,TRUE,FALSE,,FALSE,FALSE,FALSE,FALSE,FALSE
104,https://toiletmap.gov.au/facility/104,Yarramalong Weir,Camping ground,Yarramalong Road,Pampas,QLD,,-27.83547419,151.4501383,FALSE,FALSE,,FALSE,FALSE,FALSE,FALSE,,FALSE,FALSE,FALSE,FALSE,FALSE,,FALSE,FALSE,,FALSE,FALSE,FALSE,,OPEN: 24 hours,,TRUE,TRUE,FALSE,FALSE,FALSE,FALSE,FALSE,FALSE,,FALSE,FALSE,FALSE,FALSE,FALSE
106,https://toiletmap.gov.au/facility/106,Apex Park,Park or reserve,Toowoomba - Cecil Plains Road,Cecil Plains,QLD,,-27.53269062,151.2045262,FALSE,FALSE,,FALSE,FALSE,FALSE,FALSE,,FALSE,FALSE,FALSE,FALSE,FALSE,,FALSE,FALSE,,FALSE,FALSE,FALSE,,OPEN: 24 hours,,TRUE,TRUE,FALSE,FALSE,FALSE,TRUE,FALSE,FALSE,,FALSE,FALSE,FALSE,FALSE,FALSE
107,https://toiletmap.gov.au/facility/107,Short Street,Other,Short Street,Beaudesert,QLD,,-27.98728166,152.995396,TRUE,TRUE,,FALSE,FALSE,FALSE,FALSE,,FALSE,FALSE,FALSE,FALSE,FALSE,,FALSE,FALSE,,FALSE,FALSE,FALSE,,OPEN: 24 hours,,TRUE,TRUE,FALSE,FALSE,FALSE,TRUE,FALSE,FALSE,,FALSE,FALSE,FALSE,FALSE,FALSE
108,https://toiletmap.gov.au/facility/108,Jubilee Park,Park or reserve,Telemon Street,Beaudesert,QLD,,-27.9895395,152.9947928,FALSE,FALSE,,FALSE,FALSE,FALSE,FALSE,,FALSE,FALSE,FALSE,FALSE,FALSE,,FALSE,FALSE,,FALSE,FALSE,FALSE,,OPEN: Daylight hours,,TRUE,TRUE,FALSE,FALSE,FALSE,TRUE,FALSE,FALSE,,FALSE,FALSE,FALSE,FALSE,FALSE
109,https://toiletmap.gov.au/facility/109,Selwyn Park,Park or reserve,Hopkins Street,Beaudesert,QLD,,-27.98912589,152.9900359,TRUE,TRUE,,FALSE,FALSE,FALSE,FALSE,,FALSE,FALSE,FALSE,FALSE,FALSE,,FALSE,FALSE,,FALSE,FALSE,FALSE,,OPEN: 24 hours,,TRUE,TRUE,FALSE,FALSE,FALSE,TRUE,FALSE,FALSE,,FALSE,FALSE,FALSE,FALSE,FALSE
110,https://toiletmap.gov.au/facility/110,Darlington Park,Camping ground,Kerry Road,Darlington,QLD,,-28.18623186,153.0413241,TRUE,TRUE,,FALSE,FALSE,FALSE,FALSE,,FALSE,FALSE,FALSE,FALSE,FALSE,,FALSE,FALSE,,TRUE,FALSE,FALSE,,OPEN: Daylight hours,,TRUE,TRUE,FALSE,FALSE,FALSE,TRUE,FALSE,FALSE,,FALSE,FALSE,FALSE,FALSE,FALSE
111,https://toiletmap.gov.au/facility/111,Burgess Park,Caravan park,Christmas Creek Road,Southern Lamington,QLD,,-28.23893635,152.99585,TRUE,FALSE,,FALSE,FALSE,FALSE,FALSE,,FALSE,FALSE,FALSE,FALSE,FALSE,,FALSE,FALSE,,FALSE,FALSE,FALSE,,OPEN: 24 hours,,TRUE,TRUE,FALSE,FALSE,FALSE,FALSE,FALSE,FALSE,,FALSE,FALSE,FALSE,FALSE,FALSE
112,https://toiletmap.gov.au/facility/112,Stinson Park,Camping ground,Christmas Creek Road,Southern Lamington,QLD,,-28.28729982,153.0360018,TRUE,TRUE,,FALSE,FALSE,FALSE,FALSE,,FALSE,FALSE,FALSE,FALSE,FALSE,,FALSE,FALSE,,FALSE,FALSE,FALSE,,OPEN: 24 hours,,TRUE,TRUE,FALSE,FALSE,FALSE,TRUE,FALSE,FALSE,,FALSE,FALSE,FALSE,FALSE,FALSE
114,https://toiletmap.gov.au/facility/114,Tilley Park,Park or reserve,Mount Lindesay Highway,Rathdowney,QLD,,-28.22161473,152.8589774,TRUE,TRUE,,FALSE,FALSE,FALSE,FALSE,,FALSE,FALSE,FALSE,FALSE,FALSE,,FALSE,FALSE,,FALSE,FALSE,FALSE,,OPEN: 24 hours,,TRUE,TRUE,FALSE,FALSE,FALSE,TRUE,FALSE,FALSE,,FALSE,FALSE,FALSE,FALSE,FALSE
115,https://toiletmap.gov.au/facility/115,Collins Park,Park or reserve,Collins Street,Rathdowney,QLD,,-28.21135412,152.8639323,TRUE,TRUE,,FALSE,FALSE,FALSE,FALSE,,FALSE,FALSE,FALSE,FALSE,FALSE,,FALSE,FALSE,,FALSE,FALSE,FALSE,,OPEN: 24 hours,,TRUE,TRUE,FALSE,FALSE,FALSE,TRUE,FALSE,FALSE,,FALSE,FALSE,FALSE,FALSE,FALSE
116,https://toiletmap.gov.au/facility/116,Greenbank Meadows Park,Park or reserve,Campbell Road,Greenbank,QLD,,-27.72763687,153.0031428,FALSE,FALSE,,FALSE,FALSE,FALSE,FALSE,,FALSE,FALSE,FALSE,FALSE,FALSE,,FALSE,FALSE,,FALSE,FALSE,FALSE,,OPEN: 24 hours,,TRUE,TRUE,FALSE,FALSE,FALSE,TRUE,FALSE,FALSE,,FALSE,FALSE,FALSE,FALSE,FALSE
117,https://toiletmap.gov.au/facility/117,Pioneer Park ,Park or reserve,Mount Lindesay Highway,Woodhill,QLD,,-27.90050994,152.973296,FALSE,FALSE,,FALSE,FALSE,FALSE,FALSE,,FALSE,FALSE,FALSE,FALSE,FALSE,,FALSE,FALSE,,FALSE,FALSE,FALSE,,OPEN: 24 hours,,TRUE,TRUE,FALSE,FALSE,FALSE,FALSE,FALSE,FALSE,,FALSE,FALSE,FALSE,FALSE,FALSE
118,https://toiletmap.gov.au/facility/118,Paynes Bridge Park,Park or reserve,Cusack Lane,Jimboomba,QLD,,-27.81913385,153.0017816,TRUE,FALSE,,FALSE,FALSE,FALSE,FALSE,,FALSE,FALSE,FALSE,FALSE,FALSE,,FALSE,FALSE,,FALSE,FALSE,FALSE,,OPEN: 24 hours,,TRUE,TRUE,FALSE,FALSE,FALSE,FALSE,FALSE,FALSE,,FALSE,FALSE,FALSE,FALSE,FALSE
119,https://toiletmap.gov.au/facility/119,North Tamborine Park,Park or reserve,Geissmann Street,Tamborine Mountain,QLD,,-27.92298362,153.1836499,TRUE,FALSE,,FALSE,FALSE,FALSE,FALSE,,FALSE,FALSE,FALSE,FALSE,FALSE,,FALSE,FALSE,,FALSE,FALSE,FALSE,,OPEN: 24 hours,,TRUE,TRUE,FALSE,FALSE,FALSE,FALSE,FALSE,FALSE,,FALSE,FALSE,FALSE,FALSE,FALSE
120,https://toiletmap.gov.au/facility/120,Tully Park,Park or reserve,Mount Lindesay Highway,North Maclean,QLD,,-27.78372921,153.0108736,TRUE,FALSE,,FALSE,FALSE,FALSE,FALSE,,FALSE,FALSE,FALSE,FALSE,FALSE,,FALSE,FALSE,,FALSE,FALSE,FALSE,,"OPEN: Sep-Feb 7am-6:30pm, Mar-Aug 7am-5:30pm",,TRUE,TRUE,FALSE,FALSE,FALSE,TRUE,FALSE,FALSE,,FALSE,FALSE,FALSE,FALSE,FALSE
122,https://toiletmap.gov.au/facility/122,Newstead Park,Park or reserve,Rona Street,Logan Reserve,QLD,,-27.72817949,153.116847,TRUE,FALSE,,FALSE,FALSE,FALSE,FALSE,,FALSE,FALSE,FALSE,FALSE,FALSE,,FALSE,FALSE,,FALSE,FALSE,FALSE,,OPEN: Variable hours,,TRUE,TRUE,FALSE,FALSE,FALSE,FALSE,FALSE,FALSE,These toilets are for use by sporting bodies and public usage on sports days,FALSE,FALSE,FALSE,FALSE,FALSE
123,https://toiletmap.gov.au/facility/123,Doughty Park,Park or reserve,Geissmann Drive,Tamborine Mountain,QLD,,-27.92814951,153.1851172,TRUE,TRUE,,FALSE,FALSE,FALSE,FALSE,,FALSE,FALSE,FALSE,FALSE,FALSE,,TRUE,FALSE,,FALSE,FALSE,FALSE,,OPEN: 24 hours,,TRUE,TRUE,FALSE,FALSE,FALSE,TRUE,FALSE,FALSE,,FALSE,FALSE,FALSE,FALSE,FALSE
124,https://toiletmap.gov.au/facility/124,Staffsmith Park,Park or reserve,Southport Avenue,Tamborine Mountain,QLD,,-27.92211697,153.2086813,TRUE,TRUE,,FALSE,FALSE,FALSE,FALSE,,FALSE,FALSE,FALSE,FALSE,FALSE,,FALSE,FALSE,,FALSE,FALSE,FALSE,,OPEN: 24 hours,,TRUE,TRUE,FALSE,FALSE,FALSE,TRUE,FALSE,FALSE,,FALSE,FALSE,FALSE,FALSE,FALSE
125,https://toiletmap.gov.au/facility/125,Rosser Park ,Park or reserve,Prospect Street,Tamborine Mountain,QLD,,-27.97299655,153.1968815,TRUE,TRUE,,FALSE,FALSE,FALSE,FALSE,,FALSE,FALSE,FALSE,FALSE,FALSE,,FALSE,FALSE,,FALSE,FALSE,FALSE,,OPEN: 24 hours,,TRUE,TRUE,FALSE,FALSE,FALSE,TRUE,FALSE,FALSE,,FALSE,FALSE,FALSE,FALSE,FALSE
126,https://toiletmap.gov.au/facility/126,Tamborine Memorial Grounds,Park or reserve,Waterford-Tamborine Road,Tamborine,QLD,,-27.8772353,153.1250571,TRUE,TRUE,,FALSE,FALSE,FALSE,FALSE,,FALSE,FALSE,FALSE,FALSE,FALSE,,FALSE,FALSE,,FALSE,FALSE,FALSE,,OPEN: 24 hours,,TRUE,TRUE,FALSE,FALSE,FALSE,TRUE,FALSE,FALSE,,FALSE,FALSE,FALSE,FALSE,FALSE
127,https://toiletmap.gov.au/facility/127,Smith Park,Park or reserve,Kidston Street,Canungra,QLD,,-28.01761469,153.1643722,TRUE,TRUE,,FALSE,FALSE,FALSE,FALSE,,FALSE,FALSE,FALSE,FALSE,FALSE,,FALSE,FALSE,,FALSE,FALSE,FALSE,,OPEN: 24 hours,,TRUE,TRUE,FALSE,FALSE,FALSE,TRUE,FALSE,FALSE,,FALSE,FALSE,FALSE,FALSE,FALSE
128,https://toiletmap.gov.au/facility/128,Sharp Park,Camping ground,Beechmont Road,Witheren,QLD,,-28.04900123,153.1890703,TRUE,TRUE,,FALSE,FALSE,FALSE,FALSE,,FALSE,FALSE,FALSE,FALSE,FALSE,,FALSE,FALSE,,FALSE,FALSE,FALSE,,OPEN: 24 hours,,TRUE,TRUE,FALSE,FALSE,FALSE,TRUE,FALSE,FALSE,,FALSE,FALSE,FALSE,FALSE,FALSE
129,https://toiletmap.gov.au/facility/129,Graceleigh Park,Park or reserve,Beechmont Road,Beechmont,QLD,,-28.12535695,153.1869555,TRUE,FALSE,,FALSE,FALSE,FALSE,FALSE,,FALSE,FALSE,FALSE,FALSE,FALSE,,FALSE,FALSE,,FALSE,FALSE,FALSE,,OPEN: 24 hours,,TRUE,TRUE,FALSE,FALSE,FALSE,TRUE,FALSE,FALSE,,FALSE,FALSE,FALSE,FALSE,FALSE
130,https://toiletmap.gov.au/facility/130,Rosins Lookout,Park or reserve,Beechmont Road,Beechmont,QLD,,-28.10946075,153.2135541,TRUE,FALSE,,FALSE,FALSE,FALSE,FALSE,,FALSE,FALSE,FALSE,FALSE,FALSE,,FALSE,FALSE,,FALSE,FALSE,FALSE,,OPEN: 24 hours,,TRUE,TRUE,FALSE,FALSE,FALSE,TRUE,FALSE,FALSE,,FALSE,FALSE,FALSE,FALSE,FALSE
131,https://toiletmap.gov.au/facility/131,Bigriggan Camping Reserve,Camping ground,Bigriggan Road,Rathdowney,QLD,,-28.1985516,152.7777735,FALSE,FALSE,,FALSE,FALSE,FALSE,FALSE,,FALSE,FALSE,FALSE,FALSE,FALSE,,FALSE,FALSE,,FALSE,FALSE,FALSE,,OPEN: Daylight hours,,TRUE,TRUE,FALSE,FALSE,FALSE,FALSE,FALSE,FALSE,,FALSE,FALSE,FALSE,FALSE,FALSE
132,https://toiletmap.gov.au/facility/132,Yellow Pinch Camping Reserve,Park or reserve,Upper Logan Road,Mount Barney,QLD,,-28.25458044,152.7475182,FALSE,FALSE,,FALSE,FALSE,FALSE,FALSE,,FALSE,FALSE,FALSE,FALSE,FALSE,,FALSE,FALSE,,FALSE,FALSE,FALSE,,OPEN: Daylight hours,,TRUE,TRUE,FALSE,FALSE,FALSE,TRUE,FALSE,FALSE,,FALSE,FALSE,FALSE,FALSE,FALSE
133,https://toiletmap.gov.au/facility/133,Logan Village Community Centre,Community building,River Street,Logan Village,QLD,,-27.76768672,153.1051244,TRUE,TRUE,,FALSE,FALSE,FALSE,FALSE,,FALSE,FALSE,FALSE,FALSE,FALSE,,FALSE,FALSE,,FALSE,FALSE,FALSE,,OPEN: 24 hours,,TRUE,TRUE,FALSE,FALSE,FALSE,TRUE,FALSE,FALSE,,FALSE,FALSE,FALSE,FALSE,FALSE
134,https://toiletmap.gov.au/facility/134,Flanagan Camping Reserve,Park or reserve,Flanagan Reserve Road,Barney View,QLD,,-28.21337191,152.7652437,TRUE,TRUE,,FALSE,FALSE,FALSE,FALSE,,FALSE,FALSE,FALSE,FALSE,FALSE,,FALSE,FALSE,,FALSE,FALSE,FALSE,,OPEN: Daylight hours,,TRUE,TRUE,FALSE,FALSE,FALSE,TRUE,FALSE,FALSE,,FALSE,FALSE,FALSE,FALSE,TRUE
135,https://toiletmap.gov.au/facility/135,North Tamborine,Sporting facility,Knoll Road,Tamborine Mountain,QLD,,-27.92254701,153.185196,TRUE,FALSE,,FALSE,FALSE,FALSE,FALSE,,FALSE,FALSE,FALSE,FALSE,FALSE,,FALSE,FALSE,,FALSE,FALSE,FALSE,,OPEN: Variable hours,Facilities are only open for sports training,TRUE,TRUE,FALSE,FALSE,FALSE,FALSE,FALSE,FALSE,,FALSE,FALSE,FALSE,FALSE,FALSE
136,https://toiletmap.gov.au/facility/136,Mavor Park,Sporting facility,Helen Street,Beaudesert,QLD,,-27.97381667,152.9916847,FALSE,FALSE,,FALSE,FALSE,FALSE,FALSE,,FALSE,FALSE,FALSE,FALSE,FALSE,,FALSE,FALSE,,FALSE,FALSE,FALSE,,OPEN: Variable hours,Facilities are only open for sports training,TRUE,TRUE,FALSE,FALSE,FALSE,FALSE,FALSE,FALSE,,FALSE,FALSE,FALSE,FALSE,FALSE
137,https://toiletmap.gov.au/facility/137,Kooralbyn,Park or reserve,Wellington Bundock Drive,Kooralbyn,QLD,,-28.08623723,152.8440441,TRUE,FALSE,,FALSE,FALSE,FALSE,FALSE,,FALSE,FALSE,FALSE,FALSE,FALSE,,FALSE,FALSE,,FALSE,FALSE,FALSE,,OPEN: Daylight hours,,TRUE,TRUE,FALSE,FALSE,FALSE,TRUE,FALSE,FALSE,,FALSE,FALSE,FALSE,FALSE,FALSE
138,https://toiletmap.gov.au/facility/138,Greenbank Community Centre,Community building,145-167 Teviot Road,Greenbank,QLD,,-27.72927597,152.9831434,TRUE,TRUE,,FALSE,FALSE,FALSE,FALSE,,FALSE,FALSE,FALSE,FALSE,FALSE,,FALSE,FALSE,,FALSE,FALSE,FALSE,,OPEN: 24 hours,,TRUE,TRUE,FALSE,FALSE,FALSE,TRUE,FALSE,FALSE,Showers disconnected.,FALSE,FALSE,FALSE,FALSE,FALSE
139,https://toiletmap.gov.au/facility/139,Middle Park,Park or reserve,Beaudesert-Beenleigh Road,Tamborine,QLD,,-27.87974128,153.1306855,TRUE,TRUE,,FALSE,FALSE,FALSE,FALSE,,FALSE,FALSE,FALSE,FALSE,FALSE,,FALSE,FALSE,,FALSE,FALSE,FALSE,,OPEN: 24 hours,,TRUE,TRUE,FALSE,FALSE,FALSE,TRUE,FALSE,FALSE,,FALSE,FALSE,FALSE,FALSE,FALSE
140,https://toiletmap.gov.au/facility/140,Everdell,Sporting facility,Mount Lindesay Highway,Veresdale,QLD,,-27.93873083,152.9831959,TRUE,TRUE,,FALSE,FALSE,FALSE,FALSE,,FALSE,FALSE,FALSE,FALSE,FALSE,,FALSE,FALSE,,FALSE,FALSE,FALSE,,OPEN: Variable hours,Facilities are only open for sports training,TRUE,TRUE,FALSE,FALSE,FALSE,TRUE,FALSE,FALSE,These facilities are serving the purpose for sporting bodies only and not for general public use except on sporting days,FALSE,FALSE,FALSE,FALSE,FALSE
141,https://toiletmap.gov.au/facility/141,Moriarty Park,Sporting facility,Coburg Road,Canungra,QLD,,-28.01907655,153.1594418,TRUE,TRUE,,FALSE,FALSE,FALSE,FALSE,,FALSE,FALSE,FALSE,FALSE,FALSE,,FALSE,FALSE,,FALSE,FALSE,FALSE,,OPEN: Variable hours,Facilities are only open for sports training,TRUE,TRUE,FALSE,FALSE,FALSE,FALSE,FALSE,FALSE,,FALSE,FALSE,FALSE,FALSE,FALSE
143,https://toiletmap.gov.au/facility/143,Merv and Ollie Musch Park,Sporting facility,Quinzeh Creek Road,Logan Village,QLD,,-27.76355961,153.1171135,FALSE,FALSE,,FALSE,FALSE,FALSE,FALSE,,FALSE,FALSE,FALSE,FALSE,FALSE,,FALSE,FALSE,,FALSE,FALSE,FALSE,,OPEN: Variable hours,Facilities are only open for sports training,TRUE,TRUE,FALSE,FALSE,FALSE,TRUE,FALSE,FALSE,,FALSE,FALSE,FALSE,FALSE,FALSE
144,https://toiletmap.gov.au/facility/144,Dapsang Drive Park,Park or reserve,Dapsang Drive,Tamborine Mountain,QLD,,-27.92600588,153.1937362,TRUE,TRUE,,FALSE,FALSE,FALSE,FALSE,,FALSE,FALSE,FALSE,FALSE,FALSE,,FALSE,FALSE,,FALSE,FALSE,FALSE,,OPEN: Daylight hours,,TRUE,TRUE,FALSE,FALSE,FALSE,TRUE,FALSE,FALSE,,FALSE,FALSE,FALSE,FALSE,FALSE
145,https://toiletmap.gov.au/facility/145,Lions Park,Park or reserve,Tom Enright Drive,Beaudesert,QLD,,-27.99199863,152.9932188,TRUE,TRUE,,FALSE,FALSE,FALSE,FALSE,,FALSE,FALSE,FALSE,FALSE,FALSE,,FALSE,FALSE,,FALSE,FALSE,FALSE,,OPEN: Daylight hours,,TRUE,TRUE,FALSE,FALSE,FALSE,TRUE,FALSE,FALSE,,TRUE,FALSE,FALSE,FALSE,FALSE
146,https://toiletmap.gov.au/facility/146,Junior Chamber Park,Park or reserve,Brooklands Drive,Beaudesert,QLD,,-27.99478787,153.0183437,TRUE,FALSE,,FALSE,FALSE,FALSE,FALSE,,FALSE,FALSE,FALSE,FALSE,FALSE,,FALSE,FALSE,,FALSE,FALSE,FALSE,,OPEN: 24 hours,,TRUE,TRUE,FALSE,FALSE,FALSE,TRUE,FALSE,FALSE,,TRUE,FALSE,FALSE,FALSE,FALSE
148,https://toiletmap.gov.au/facility/148,Rathdowney Memorial Grounds,Sporting facility,Mount Lindesay Highway,Rathdowney,QLD,,-28.21210377,152.8642119,TRUE,TRUE,,FALSE,FALSE,FALSE,FALSE,,FALSE,FALSE,FALSE,FALSE,FALSE,,FALSE,FALSE,,FALSE,FALSE,FALSE,,OPEN: 24 hours,,TRUE,TRUE,FALSE,FALSE,FALSE,TRUE,FALSE,FALSE,,TRUE,FALSE,FALSE,FALSE,TRUE
149,https://toiletmap.gov.au/facility/149,Brushwood Park,Park or reserve,Brushwood Crescent,Cedar Grove,QLD,,-27.85941724,152.9787581,TRUE,FALSE,,FALSE,FALSE,FALSE,FALSE,,FALSE,FALSE,FALSE,FALSE,FALSE,,FALSE,FALSE,,FALSE,FALSE,FALSE,,OPEN: Daylight hours,,TRUE,TRUE,FALSE,FALSE,FALSE,TRUE,FALSE,FALSE,,FALSE,TRUE,FALSE,FALSE,FALSE
150,https://toiletmap.gov.au/facility/150,Rotary Park,Park or reserve,Cusack Lane,Jimboomba,QLD,,-27.83030679,153.0232491,TRUE,TRUE,,FALSE,FALSE,FALSE,FALSE,,FALSE,FALSE,FALSE,FALSE,FALSE,,FALSE,FALSE,,FALSE,FALSE,FALSE,,OPEN: 24 hours,,TRUE,TRUE,FALSE,FALSE,FALSE,TRUE,FALSE,FALSE,,FALSE,FALSE,FALSE,FALSE,FALSE
151,https://toiletmap.gov.au/facility/151,Mount Tamborine Botanic Gardens,Park or reserve,Kinabalu Drive,Tamborine Mountain,QLD,,-27.9154251,153.2035672,TRUE,FALSE,,FALSE,FALSE,FALSE,FALSE,,FALSE,FALSE,FALSE,FALSE,FALSE,,FALSE,FALSE,,FALSE,FALSE,FALSE,,OPEN: Daylight hours,,TRUE,TRUE,FALSE,FALSE,FALSE,TRUE,FALSE,FALSE,,FALSE,FALSE,FALSE,FALSE,FALSE
153,https://toiletmap.gov.au/facility/153,Dick Westermann Park,Park or reserve,Mount Lindesay Highway,Beaudesert,QLD,,-27.96867291,152.9945477,TRUE,TRUE,,FALSE,FALSE,FALSE,FALSE,,FALSE,FALSE,FALSE,FALSE,FALSE,,FALSE,FALSE,,FALSE,FALSE,FALSE,,OPEN: 24 hours,,TRUE,TRUE,FALSE,FALSE,FALSE,TRUE,FALSE,FALSE,,TRUE,FALSE,FALSE,FALSE,FALSE
154,https://toiletmap.gov.au/facility/154,Argyle Road Park,Park or reserve,Argyle Road,Greenbank,QLD,,-27.72803112,152.9626232,FALSE,FALSE,,FALSE,FALSE,FALSE,FALSE,,FALSE,FALSE,FALSE,FALSE,FALSE,,FALSE,FALSE,,FALSE,FALSE,FALSE,,OPEN: 24 hours,,TRUE,TRUE,FALSE,FALSE,FALSE,TRUE,FALSE,FALSE,,FALSE,FALSE,FALSE,FALSE,FALSE
155,https://toiletmap.gov.au/facility/155,Thorndon Park,Park or reserve,Hamilton Terrace,Paradise,SA,,-34.87507079,138.6899417,TRUE,FALSE,,FALSE,FALSE,FALSE,FALSE,,FALSE,FALSE,FALSE,FALSE,FALSE,,FALSE,FALSE,,FALSE,FALSE,FALSE,,OPEN: Daylight hours,Open 7:30am-Sunset,TRUE,TRUE,FALSE,FALSE,FALSE,TRUE,FALSE,FALSE,Multiple toilets on location both North and South,FALSE,FALSE,FALSE,FALSE,FALSE
156,https://toiletmap.gov.au/facility/156,Jenkins Avenue Reserve,Sporting facility,Maple Avenue,Rostrevor,SA,,-34.89568009,138.6854855,FALSE,FALSE,,FALSE,FALSE,FALSE,FALSE,,FALSE,FALSE,FALSE,FALSE,FALSE,,FALSE,FALSE,,FALSE,FALSE,FALSE,,OPEN: 24 hours,,TRUE,TRUE,FALSE,FALSE,FALSE,FALSE,FALSE,FALSE,,FALSE,FALSE,FALSE,FALSE,FALSE
157,https://toiletmap.gov.au/facility/157,The Gums Reserve,Park or reserve,Shakespeare Avenue,Tranmere,SA,,-34.90790107,138.6649328,TRUE,TRUE,,FALSE,FALSE,FALSE,FALSE,,FALSE,FALSE,FALSE,FALSE,FALSE,,TRUE,FALSE,,FALSE,FALSE,FALSE,,OPEN: Daylight hours,,FALSE,FALSE,TRUE,FALSE,FALSE,TRUE,FALSE,FALSE,Exeloo,TRUE,TRUE,TRUE,FALSE,FALSE
158,https://toiletmap.gov.au/facility/158,Lovell Reserve,Park or reserve,Ryan Avenue,Athelstone,SA,,-34.86803129,138.7038816,FALSE,FALSE,,FALSE,FALSE,FALSE,FALSE,,FALSE,FALSE,FALSE,FALSE,FALSE,,FALSE,FALSE,,FALSE,FALSE,FALSE,,OPEN: 24 hours,,TRUE,TRUE,FALSE,FALSE,FALSE,FALSE,FALSE,FALSE,,FALSE,FALSE,FALSE,FALSE,FALSE
159,https://toiletmap.gov.au/facility/159,Fox Field Oval,Sporting facility,Maryvale Road,Athelstone,SA,,-34.8809835,138.7012645,TRUE,FALSE,,FALSE,FALSE,FALSE,FALSE,,FALSE,FALSE,FALSE,FALSE,FALSE,,FALSE,FALSE,,FALSE,FALSE,FALSE,,OPEN: Daylight hours,,TRUE,TRUE,FALSE,FALSE,FALSE,TRUE,FALSE,FALSE,,FALSE,FALSE,FALSE,FALSE,FALSE
160,https://toiletmap.gov.au/facility/160,Shirley Avenue Reserve,Park or reserve,Shirley Avenue,Tranmere,SA,,-34.89743582,138.6642281,FALSE,FALSE,,FALSE,FALSE,FALSE,FALSE,,FALSE,FALSE,FALSE,FALSE,FALSE,,FALSE,FALSE,,FALSE,FALSE,FALSE,,OPEN: 24 hours,,TRUE,TRUE,FALSE,FALSE,FALSE,FALSE,FALSE,FALSE,,FALSE,FALSE,FALSE,FALSE,FALSE
161,https://toiletmap.gov.au/facility/161,Max Amber Sports Field,Sporting facility,Schulze Road,Athelstone,SA,,-34.86938285,138.6930624,TRUE,FALSE,Parking locked up at night time.,FALSE,FALSE,FALSE,FALSE,,FALSE,FALSE,FALSE,FALSE,FALSE,,FALSE,FALSE,,FALSE,FALSE,FALSE,,OPEN: 24 hours,,TRUE,TRUE,FALSE,FALSE,FALSE,FALSE,FALSE,FALSE,,FALSE,FALSE,FALSE,FALSE,FALSE
162,https://toiletmap.gov.au/facility/162,Etheridge Shire Hall,Other,St George Street,Georgetown,QLD,,-18.29279177,143.5496957,TRUE,FALSE,,FALSE,FALSE,FALSE,FALSE,,FALSE,FALSE,FALSE,FALSE,FALSE,,FALSE,FALSE,,FALSE,FALSE,FALSE,,OPEN: 24 hours,,TRUE,TRUE,FALSE,FALSE,FALSE,FALSE,FALSE,FALSE,,FALSE,FALSE,FALSE,FALSE,FALSE
163,https://toiletmap.gov.au/facility/163,Heritage Park,Park or reserve,High Street,Georgetown,QLD,,-18.29188807,143.5477345,TRUE,TRUE,,FALSE,FALSE,FALSE,FALSE,,FALSE,FALSE,FALSE,FALSE,FALSE,,TRUE,FALSE,,TRUE,FALSE,FALSE,,OPEN: 24 hours,,TRUE,TRUE,FALSE,FALSE,FALSE,TRUE,FALSE,FALSE,,FALSE,FALSE,FALSE,FALSE,FALSE
164,https://toiletmap.gov.au/facility/164,Einasleigh,Park or reserve,Baroota Street,Einasleigh,QLD,,-18.51193658,144.0938149,TRUE,FALSE,,FALSE,FALSE,FALSE,FALSE,,FALSE,FALSE,FALSE,FALSE,FALSE,,FALSE,FALSE,,TRUE,FALSE,FALSE,,OPEN: 24 hours,,TRUE,TRUE,FALSE,FALSE,FALSE,TRUE,FALSE,FALSE,,FALSE,FALSE,FALSE,FALSE,FALSE
166,https://toiletmap.gov.au/facility/166,Doug Talbot Park Ablutions,Park or reserve,Central Road,Tom Price,WA,,-22.69426008,117.7946966,FALSE,TRUE,,FALSE,FALSE,FALSE,FALSE,,FALSE,FALSE,FALSE,FALSE,FALSE,,TRUE,FALSE,,FALSE,FALSE,FALSE,,OPEN: Mon-Fri 10am-4pm,Monday to Sunday 24 hours,TRUE,TRUE,FALSE,FALSE,FALSE,TRUE,FALSE,FALSE,,TRUE,FALSE,TRUE,FALSE,TRUE
167,https://toiletmap.gov.au/facility/167,Lions Park,Park or reserve,North Road,Tom Price,WA,,-22.68820954,117.7922808,TRUE,FALSE,,FALSE,FALSE,FALSE,FALSE,,FALSE,FALSE,FALSE,FALSE,FALSE,,FALSE,FALSE,,FALSE,FALSE,FALSE,,OPEN: 7am-6pm,24 Hours - Monday to Sunday,TRUE,TRUE,FALSE,FALSE,FALSE,TRUE,FALSE,FALSE,,TRUE,FALSE,FALSE,FALSE,FALSE
168,https://toiletmap.gov.au/facility/168,Clem Thompson Memorial Oval,Sporting facility,Jacaranda Drive,Tom Price,WA,,-22.6945925,117.7986638,TRUE,TRUE,,TRUE,FALSE,FALSE,FALSE,,FALSE,FALSE,FALSE,FALSE,FALSE,,FALSE,FALSE,,FALSE,FALSE,FALSE,,OPEN: Variable hours,Facilities are only open for sporting events,TRUE,TRUE,FALSE,FALSE,FALSE,TRUE,FALSE,FALSE,,FALSE,FALSE,FALSE,FALSE,FALSE
170,https://toiletmap.gov.au/facility/170,Tjiluna Oval,Sporting facility,Willow Road,Tom Price,WA,,-22.69649856,117.7964253,FALSE,FALSE,,FALSE,FALSE,FALSE,FALSE,,FALSE,FALSE,FALSE,FALSE,FALSE,,FALSE,FALSE,,FALSE,FALSE,FALSE,,OPEN: Variable hours,Facilities are only open during sporting fixtures,TRUE,TRUE,FALSE,FALSE,FALSE,TRUE,FALSE,FALSE,,FALSE,FALSE,FALSE,FALSE,FALSE
171,https://toiletmap.gov.au/facility/171,Area W Oval,Sporting facility,Tanunda Street,Tom Price,WA,,-22.68202608,117.7817311,FALSE,FALSE,,FALSE,FALSE,FALSE,FALSE,,FALSE,FALSE,FALSE,FALSE,FALSE,,FALSE,FALSE,,FALSE,FALSE,FALSE,,OPEN: Variable hours,Facilities are only open during sporting fixtures,TRUE,TRUE,FALSE,FALSE,FALSE,FALSE,FALSE,FALSE,,FALSE,FALSE,FALSE,FALSE,FALSE
172,https://toiletmap.gov.au/facility/172,Shopping Centre,Shopping centre,Mininer Lane,Paraburdoo,WA,,-23.20013251,117.671459,FALSE,FALSE,,FALSE,FALSE,FALSE,FALSE,,FALSE,FALSE,FALSE,FALSE,FALSE,,FALSE,FALSE,,FALSE,FALSE,FALSE,,OPEN: 24 hours,,TRUE,TRUE,FALSE,FALSE,FALSE,TRUE,FALSE,FALSE,,FALSE,FALSE,FALSE,FALSE,FALSE
173,https://toiletmap.gov.au/facility/173,Ashburton Hall,Other,Ashburton Court,Paraburdoo,WA,,-23.20017683,117.6722347,FALSE,FALSE,,FALSE,FALSE,FALSE,FALSE,,FALSE,FALSE,FALSE,FALSE,FALSE,,FALSE,FALSE,,FALSE,FALSE,FALSE,,Currently closed,Facilities are open when the hall is in use,TRUE,TRUE,FALSE,FALSE,FALSE,FALSE,FALSE,FALSE,,FALSE,FALSE,FALSE,FALSE,FALSE
174,https://toiletmap.gov.au/facility/174,Peter Sutherland Oval,Sporting facility,Fortescue Road,Paraburdoo,WA,,-23.19729563,117.6699297,TRUE,FALSE,,FALSE,FALSE,FALSE,FALSE,,FALSE,FALSE,FALSE,FALSE,FALSE,,FALSE,FALSE,,FALSE,FALSE,FALSE,,OPEN: 24 hours,,TRUE,TRUE,FALSE,FALSE,FALSE,TRUE,FALSE,FALSE,,FALSE,FALSE,FALSE,FALSE,FALSE
177,https://toiletmap.gov.au/facility/177,EN Jones,Other,Churchill Street,Narembeen,WA,,-32.0655575,118.3945161,FALSE,FALSE,,FALSE,FALSE,FALSE,FALSE,,FALSE,FALSE,FALSE,FALSE,FALSE,,FALSE,FALSE,,FALSE,FALSE,FALSE,,OPEN: 24 hours,,TRUE,TRUE,FALSE,FALSE,FALSE,TRUE,FALSE,FALSE,,FALSE,FALSE,FALSE,FALSE,FALSE
178,https://toiletmap.gov.au/facility/178,Apex Park,Park or reserve,Currall Street,Narembeen,WA,,-32.06407649,118.39591,FALSE,FALSE,,FALSE,FALSE,FALSE,FALSE,,FALSE,FALSE,FALSE,FALSE,FALSE,,FALSE,FALSE,,FALSE,FALSE,FALSE,,OPEN: 24 hours,,TRUE,TRUE,FALSE,FALSE,FALSE,FALSE,FALSE,FALSE,,FALSE,FALSE,FALSE,FALSE,FALSE
182,https://toiletmap.gov.au/facility/182,Town Beach,Beach,73 Robinson Street,Broome,WA,,-17.96864677,122.2365497,TRUE,TRUE,,FALSE,FALSE,FALSE,FALSE,,FALSE,FALSE,FALSE,FALSE,FALSE,,FALSE,FALSE,,FALSE,FALSE,FALSE,,OPEN: 6:30am-7pm,"Toilet is open everyday of the year, on event evenings it will close at 11:00PM",TRUE,TRUE,FALSE,FALSE,FALSE,TRUE,FALSE,FALSE,,TRUE,TRUE,TRUE,FALSE,FALSE
183,https://toiletmap.gov.au/facility/183,Cable Beach,Beach,1 Cable Beach Road West,Cable Beach,WA,,-17.9303073,122.2103236,TRUE,TRUE,,FALSE,FALSE,FALSE,FALSE,,FALSE,FALSE,FALSE,FALSE,FALSE,,FALSE,FALSE,,FALSE,FALSE,FALSE,,OPEN: 6:30am-7pm,Toilets are open everyday of the year,TRUE,TRUE,FALSE,FALSE,FALSE,TRUE,FALSE,FALSE,,TRUE,TRUE,TRUE,FALSE,TRUE
184,https://toiletmap.gov.au/facility/184,Gantheaume Point,Park or reserve,502 Gantheaume Point Road,Minyirr,WA,,-17.97509088,122.1785792,TRUE,FALSE,,FALSE,FALSE,FALSE,FALSE,,FALSE,FALSE,FALSE,FALSE,FALSE,,FALSE,FALSE,,FALSE,FALSE,FALSE,,OPEN: 24 hours,,FALSE,FALSE,TRUE,FALSE,FALSE,FALSE,FALSE,FALSE,,TRUE,FALSE,FALSE,FALSE,FALSE
185,https://toiletmap.gov.au/facility/185,Adventure Bay Community Hall,Community building,Adventure Bay Road,Adventure Bay,TAS,,-43.36176484,147.3286652,TRUE,FALSE,,FALSE,FALSE,FALSE,FALSE,,FALSE,FALSE,FALSE,FALSE,FALSE,,FALSE,FALSE,,FALSE,FALSE,FALSE,,OPEN: 24 hours,,TRUE,TRUE,FALSE,FALSE,FALSE,TRUE,FALSE,FALSE,,FALSE,FALSE,FALSE,FALSE,FALSE
186,https://toiletmap.gov.au/facility/186,Alonnah Service Centre,Other,Bruny Island Main Road,Alonnah,TAS,,-43.31598855,147.2431464,TRUE,TRUE,,FALSE,FALSE,FALSE,FALSE,,FALSE,FALSE,FALSE,FALSE,FALSE,,FALSE,FALSE,,TRUE,FALSE,FALSE,,OPEN: 24 hours,,TRUE,TRUE,FALSE,FALSE,FALSE,TRUE,FALSE,FALSE,,FALSE,FALSE,FALSE,FALSE,FALSE
187,https://toiletmap.gov.au/facility/187,Blackmans Bay Foreshore,Park or reserve,Ocean Esplanade,Blackmans Bay,TAS,,-43.00264749,147.3247382,FALSE,FALSE,,FALSE,FALSE,FALSE,FALSE,,FALSE,FALSE,FALSE,FALSE,FALSE,,FALSE,FALSE,,FALSE,FALSE,FALSE,,OPEN: Daylight hours,,FALSE,FALSE,TRUE,FALSE,FALSE,TRUE,FALSE,FALSE,,FALSE,FALSE,FALSE,FALSE,FALSE
188,https://toiletmap.gov.au/facility/188,Browns River,Park or reserve,Walking Track,Bonnet Hill,TAS,,-42.97693186,147.3286065,TRUE,FALSE,,FALSE,FALSE,FALSE,FALSE,,FALSE,FALSE,FALSE,FALSE,FALSE,,FALSE,FALSE,,FALSE,FALSE,FALSE,,OPEN: 24 hours,,TRUE,TRUE,FALSE,FALSE,FALSE,TRUE,TRUE,FALSE,,TRUE,FALSE,FALSE,FALSE,FALSE
189,https://toiletmap.gov.au/facility/189,Coningham Beach,Beach,245 Coningham Road,Coningham,TAS,,-43.07755405,147.281023,TRUE,FALSE,,FALSE,FALSE,FALSE,FALSE,,FALSE,FALSE,FALSE,FALSE,FALSE,,TRUE,FALSE,,FALSE,FALSE,FALSE,,OPEN: 24 hours,,FALSE,FALSE,TRUE,FALSE,FALSE,TRUE,FALSE,FALSE,,FALSE,FALSE,FALSE,FALSE,FALSE
190,https://toiletmap.gov.au/facility/190,Dennes Point,Park or reserve,Nebraska Road,Dennes Point,TAS,,-43.06827702,147.3498219,TRUE,FALSE,,FALSE,FALSE,FALSE,FALSE,,FALSE,FALSE,FALSE,FALSE,FALSE,,FALSE,FALSE,,FALSE,FALSE,FALSE,,OPEN: 24 hours,,TRUE,TRUE,FALSE,FALSE,FALSE,TRUE,FALSE,FALSE,,FALSE,FALSE,FALSE,FALSE,FALSE
191,https://toiletmap.gov.au/facility/191,Dru Point Reserve,Park or reserve,Dru Point Road,Margate,TAS,,-43.02649722,147.2773993,TRUE,FALSE,Parking available in gravel car park.,FALSE,FALSE,FALSE,FALSE,,FALSE,FALSE,FALSE,FALSE,FALSE,,TRUE,FALSE,,FALSE,FALSE,FALSE,,OPEN: Daylight hours,,FALSE,FALSE,TRUE,FALSE,FALSE,TRUE,TRUE,TRUE,,TRUE,FALSE,TRUE,FALSE,FALSE
192,https://toiletmap.gov.au/facility/192,Ferguson Road,Car park,Tinderbox Road East E,Tinderbox,TAS,,-43.05705782,147.3296138,TRUE,FALSE,,FALSE,FALSE,FALSE,FALSE,,FALSE,FALSE,FALSE,FALSE,FALSE,,FALSE,FALSE,,FALSE,FALSE,FALSE,,OPEN: 24 hours,,TRUE,TRUE,FALSE,FALSE,FALSE,FALSE,FALSE,FALSE,,FALSE,FALSE,FALSE,FALSE,FALSE
194,https://toiletmap.gov.au/facility/194,Gordon Oval,Park or reserve,Channel Highway,Gordon,TAS,,-43.26149944,147.2424053,FALSE,TRUE,,FALSE,FALSE,FALSE,FALSE,,FALSE,FALSE,FALSE,FALSE,FALSE,,FALSE,FALSE,,TRUE,FALSE,FALSE,,OPEN: 24 hours,,FALSE,FALSE,TRUE,FALSE,FALSE,TRUE,FALSE,FALSE,,FALSE,FALSE,FALSE,FALSE,FALSE
195,https://toiletmap.gov.au/facility/195,Kettering Oval,Sporting facility,Channel Highway,Kettering,TAS,,-43.12549834,147.2474021,TRUE,FALSE,,FALSE,FALSE,FALSE,FALSE,,FALSE,FALSE,FALSE,FALSE,FALSE,,FALSE,FALSE,,FALSE,FALSE,FALSE,,OPEN: 24 hours,,TRUE,TRUE,FALSE,FALSE,FALSE,FALSE,FALSE,FALSE,,FALSE,FALSE,FALSE,FALSE,FALSE
197,https://toiletmap.gov.au/facility/197,Margate Oval,Sporting facility,Channel Highway,Margate,TAS,,-43.02949741,147.2633996,FALSE,FALSE,,FALSE,FALSE,FALSE,FALSE,,FALSE,FALSE,FALSE,FALSE,FALSE,,FALSE,FALSE,,FALSE,FALSE,FALSE,,OPEN: 24 hours,,TRUE,TRUE,FALSE,FALSE,FALSE,FALSE,FALSE,FALSE,Located at the rear of the Margate Hall,FALSE,FALSE,FALSE,FALSE,FALSE
198,https://toiletmap.gov.au/facility/198,Middleton Foreshore,Other,Esplanade Road,Middleton,TAS,,-43.23263386,147.2577732,FALSE,FALSE,,FALSE,FALSE,FALSE,FALSE,,FALSE,FALSE,FALSE,FALSE,FALSE,,FALSE,FALSE,,FALSE,FALSE,FALSE,,OPEN: 24 hours,,TRUE,TRUE,FALSE,FALSE,FALSE,FALSE,FALSE,FALSE,,FALSE,FALSE,FALSE,FALSE,FALSE
199,https://toiletmap.gov.au/facility/199,Osborne Esplanade,Park or reserve,Osborne Esplanade,Kingston Beach,TAS,,-42.98049628,147.3253975,TRUE,TRUE,,FALSE,FALSE,FALSE,FALSE,,TRUE,TRUE,TRUE,FALSE,FALSE,,TRUE,FALSE,,FALSE,FALSE,FALSE,,OPEN: 24 hours,,FALSE,FALSE,TRUE,FALSE,TRUE,TRUE,FALSE,FALSE,,TRUE,TRUE,TRUE,FALSE,TRUE
201,https://toiletmap.gov.au/facility/201,Lunawanna Memorial Hall,Other,4587 Bruny Island Main Road,Lunawanna,TAS,,-43.36448884,147.2278834,TRUE,FALSE,,FALSE,FALSE,FALSE,FALSE,,FALSE,FALSE,FALSE,FALSE,FALSE,,FALSE,FALSE,,FALSE,FALSE,FALSE,,OPEN: 24 hours,,TRUE,TRUE,FALSE,FALSE,FALSE,FALSE,FALSE,FALSE,,FALSE,FALSE,FALSE,FALSE,FALSE
203,https://toiletmap.gov.au/facility/203,Silverwater Park,Park or reserve,Channel Highway,Woodbridge,TAS,,-43.16249872,147.2394031,FALSE,FALSE,,FALSE,FALSE,FALSE,FALSE,,FALSE,FALSE,FALSE,FALSE,FALSE,,FALSE,FALSE,,FALSE,FALSE,FALSE,,OPEN: 24 hours,,TRUE,TRUE,FALSE,FALSE,FALSE,FALSE,FALSE,FALSE,,FALSE,FALSE,FALSE,FALSE,FALSE
204,https://toiletmap.gov.au/facility/204,Snug Foreshore,Other,Beach Road,Snug,TAS,,-43.06349768,147.2624004,TRUE,FALSE,,FALSE,FALSE,FALSE,FALSE,,FALSE,FALSE,FALSE,FALSE,FALSE,,FALSE,FALSE,,FALSE,FALSE,FALSE,,OPEN: 24 hours,,TRUE,TRUE,FALSE,FALSE,FALSE,TRUE,FALSE,FALSE,,FALSE,FALSE,FALSE,FALSE,FALSE
205,https://toiletmap.gov.au/facility/205,Taroona Beach,Beach,Niree Parade,Taroona,TAS,,-42.95194387,147.3517597,FALSE,FALSE,,FALSE,FALSE,FALSE,FALSE,,FALSE,FALSE,FALSE,FALSE,FALSE,,FALSE,FALSE,,FALSE,FALSE,FALSE,,OPEN: 24 hours,,TRUE,TRUE,FALSE,FALSE,FALSE,TRUE,FALSE,FALSE,,FALSE,FALSE,FALSE,FALSE,FALSE
206,https://toiletmap.gov.au/facility/206,Trial Bay,Park or reserve,Channel Highway,Kettering,TAS,,-43.13215411,147.25253,TRUE,FALSE,,FALSE,FALSE,FALSE,FALSE,,FALSE,FALSE,FALSE,FALSE,FALSE,,FALSE,FALSE,,FALSE,FALSE,FALSE,,OPEN: 24 hours,,TRUE,TRUE,FALSE,FALSE,FALSE,FALSE,FALSE,FALSE,,FALSE,FALSE,FALSE,FALSE,FALSE
207,https://toiletmap.gov.au/facility/207,Woodbridge Hall,Other,Channel Highway,Woodbridge,TAS,,-43.15949869,147.239403,TRUE,FALSE,,FALSE,FALSE,FALSE,FALSE,,FALSE,FALSE,FALSE,FALSE,FALSE,,FALSE,FALSE,,FALSE,FALSE,FALSE,,OPEN: 24 hours,,TRUE,TRUE,FALSE,FALSE,FALSE,FALSE,FALSE,FALSE,,FALSE,FALSE,FALSE,FALSE,FALSE
209,https://toiletmap.gov.au/facility/209,Sandfly Hall,Other,Sandfly Road,Longley,TAS,,-42.9844979,147.1953998,FALSE,FALSE,,FALSE,FALSE,FALSE,FALSE,,FALSE,FALSE,FALSE,FALSE,FALSE,,FALSE,FALSE,,FALSE,FALSE,FALSE,,OPEN: 24 hours,,FALSE,FALSE,TRUE,FALSE,FALSE,FALSE,FALSE,FALSE,,FALSE,FALSE,FALSE,FALSE,FALSE
210,https://toiletmap.gov.au/facility/210,Wharf Area,Other,Edward Street,Currie,TAS,,-39.92878924,143.845731,FALSE,FALSE,,FALSE,FALSE,FALSE,FALSE,,FALSE,FALSE,FALSE,FALSE,FALSE,,FALSE,FALSE,,FALSE,FALSE,FALSE,,OPEN: 24 hours,,TRUE,TRUE,FALSE,FALSE,FALSE,FALSE,FALSE,FALSE,,FALSE,FALSE,FALSE,FALSE,FALSE
211,https://toiletmap.gov.au/facility/211,Recreation Ground,Sporting facility,Owen Smith Drive,Currie,TAS,,-39.93338501,143.8487447,FALSE,FALSE,,FALSE,FALSE,FALSE,FALSE,,FALSE,FALSE,FALSE,FALSE,FALSE,,FALSE,FALSE,,FALSE,FALSE,FALSE,,OPEN: 24 hours,,TRUE,TRUE,FALSE,FALSE,FALSE,TRUE,FALSE,FALSE,,FALSE,FALSE,FALSE,FALSE,FALSE
212,https://toiletmap.gov.au/facility/212,Huxley Street,Other,Huxley Street,Currie,TAS,,-39.92967156,143.8505652,FALSE,FALSE,,FALSE,FALSE,FALSE,FALSE,,FALSE,FALSE,FALSE,FALSE,FALSE,,FALSE,FALSE,,FALSE,FALSE,FALSE,,OPEN: 24 hours,,TRUE,TRUE,FALSE,FALSE,FALSE,TRUE,FALSE,FALSE,,TRUE,FALSE,FALSE,FALSE,FALSE
213,https://toiletmap.gov.au/facility/213,Naracoopa,Park or reserve,Fraser Road,Naracoopa,TAS,,-39.91659952,144.1168393,FALSE,FALSE,,FALSE,FALSE,FALSE,FALSE,,FALSE,FALSE,FALSE,FALSE,FALSE,,FALSE,FALSE,,FALSE,FALSE,FALSE,,OPEN: 24 hours,,TRUE,TRUE,FALSE,FALSE,FALSE,FALSE,FALSE,FALSE,,FALSE,FALSE,FALSE,FALSE,FALSE
214,https://toiletmap.gov.au/facility/214,Pennys Lagoon,Park or reserve,Martha Lavinia Road,Egg Lagoon,TAS,,-39.65686252,144.0784021,FALSE,FALSE,,FALSE,FALSE,FALSE,FALSE,,FALSE,FALSE,FALSE,FALSE,FALSE,,FALSE,FALSE,,FALSE,FALSE,FALSE,,OPEN: 24 hours,,TRUE,TRUE,FALSE,FALSE,FALSE,TRUE,FALSE,FALSE,,FALSE,FALSE,FALSE,FALSE,FALSE
216,https://toiletmap.gov.au/facility/216,Esplanade,Car park,10-12 Esplanade,Strahan,TAS,,-42.15516081,145.3259719,TRUE,TRUE,,FALSE,FALSE,FALSE,FALSE,,FALSE,FALSE,FALSE,FALSE,FALSE,,FALSE,FALSE,,FALSE,FALSE,FALSE,,OPEN: Daylight hours,,TRUE,TRUE,FALSE,FALSE,FALSE,TRUE,FALSE,FALSE,Hots showers,FALSE,FALSE,TRUE,FALSE,FALSE
219,https://toiletmap.gov.au/facility/219,Sticht Street,Park or reserve,Sticht Street,Queenstown,TAS,,-42.08079925,145.5559733,FALSE,FALSE,,FALSE,FALSE,FALSE,FALSE,,FALSE,FALSE,FALSE,FALSE,FALSE,,FALSE,FALSE,,FALSE,FALSE,FALSE,,OPEN: Daylight hours,,FALSE,FALSE,TRUE,FALSE,TRUE,TRUE,TRUE,FALSE,,FALSE,FALSE,FALSE,FALSE,FALSE
220,https://toiletmap.gov.au/facility/220,Victoria Street,Sporting facility,Victoria Street,Tullah,TAS,,-41.73807827,145.617007,TRUE,FALSE,,FALSE,FALSE,FALSE,FALSE,,FALSE,FALSE,FALSE,FALSE,FALSE,,FALSE,FALSE,,FALSE,FALSE,FALSE,,OPEN: Daylight hours,,TRUE,TRUE,FALSE,FALSE,FALSE,FALSE,FALSE,FALSE,,FALSE,FALSE,FALSE,FALSE,FALSE
222,https://toiletmap.gov.au/facility/222,Agnes Street,Car park,4 Agnes Street,Rosebery,TAS,,-41.78026105,145.5387795,TRUE,FALSE,,FALSE,FALSE,FALSE,FALSE,,FALSE,FALSE,FALSE,FALSE,FALSE,,FALSE,FALSE,,FALSE,FALSE,FALSE,,OPEN: Daylight hours,,FALSE,FALSE,TRUE,FALSE,FALSE,TRUE,FALSE,FALSE,,FALSE,FALSE,FALSE,FALSE,FALSE
223,https://toiletmap.gov.au/facility/223,Howards Park Zeehan,Park or reserve,121 MAIN ST,Zeehan,TAS,,-41.8832,145.33617,FALSE,FALSE,,FALSE,FALSE,FALSE,FALSE,,FALSE,FALSE,FALSE,FALSE,FALSE,,FALSE,FALSE,,FALSE,FALSE,FALSE,,OPEN: 7am-6pm,,FALSE,FALSE,TRUE,FALSE,FALSE,TRUE,FALSE,FALSE,,FALSE,FALSE,FALSE,FALSE,FALSE
226,https://toiletmap.gov.au/facility/226,Purkiss Reserve,Park or reserve,Ambrose Street,Tennant Creek,NT,,-19.64425881,134.1930998,FALSE,FALSE,,FALSE,FALSE,FALSE,FALSE,,FALSE,FALSE,FALSE,FALSE,FALSE,,FALSE,FALSE,,FALSE,FALSE,FALSE,,OPEN: 6:30am-7pm,,TRUE,TRUE,FALSE,FALSE,FALSE,TRUE,FALSE,FALSE,,FALSE,FALSE,FALSE,FALSE,FALSE
227,https://toiletmap.gov.au/facility/227,Swimming Pool,Sporting facility,Ambrose Street,Tennant Creek,NT,,-19.64513876,134.1940042,FALSE,FALSE,,FALSE,FALSE,FALSE,FALSE,,FALSE,FALSE,FALSE,FALSE,FALSE,,FALSE,FALSE,,FALSE,FALSE,FALSE,,OPEN: Sep-Apr 10am-6pm,Please note toilet is only open to users of the sports facilities,TRUE,TRUE,FALSE,FALSE,FALSE,TRUE,FALSE,FALSE,,FALSE,FALSE,FALSE,FALSE,FALSE
229,https://toiletmap.gov.au/facility/229,Public Library,Community building,Peko Road,Tennant Creek,NT,,-19.64667868,134.1960574,FALSE,FALSE,,FALSE,FALSE,FALSE,FALSE,,FALSE,FALSE,FALSE,FALSE,FALSE,,FALSE,FALSE,,FALSE,FALSE,FALSE,,OPEN: Mon-Fri 10am-6pm,,TRUE,TRUE,FALSE,FALSE,FALSE,TRUE,FALSE,FALSE,,FALSE,FALSE,FALSE,FALSE,FALSE
231,https://toiletmap.gov.au/facility/231,Mary Ann Dam,Park or reserve,Stuart Highway,Tennant Creek,NT,,-19.6063735,134.1996433,FALSE,FALSE,,FALSE,FALSE,FALSE,FALSE,,FALSE,FALSE,FALSE,FALSE,FALSE,,FALSE,FALSE,,FALSE,FALSE,FALSE,,OPEN: 24 hours,,TRUE,TRUE,FALSE,FALSE,FALSE,TRUE,FALSE,FALSE,,FALSE,FALSE,FALSE,FALSE,FALSE
232,https://toiletmap.gov.au/facility/232,Endeavour Square,Other,Chesterfield Circuit,Nhulunbuy,NT,,-12.18407951,136.7864346,FALSE,FALSE,,FALSE,FALSE,FALSE,FALSE,,FALSE,FALSE,FALSE,FALSE,FALSE,,FALSE,FALSE,,FALSE,FALSE,FALSE,,OPEN: 24 hours,,TRUE,TRUE,FALSE,FALSE,FALSE,TRUE,FALSE,FALSE,,FALSE,FALSE,FALSE,FALSE,FALSE
233,https://toiletmap.gov.au/facility/233,Swim Pool,Sporting facility,Mirimina Street,Nhulunbuy,NT,,-12.18451239,136.787983,FALSE,FALSE,,FALSE,FALSE,FALSE,FALSE,,FALSE,FALSE,FALSE,FALSE,FALSE,,FALSE,FALSE,,FALSE,FALSE,FALSE,,OPEN: Wed-Mon 9am-5pm,,TRUE,TRUE,FALSE,FALSE,FALSE,FALSE,FALSE,FALSE,,FALSE,FALSE,FALSE,FALSE,FALSE
234,https://toiletmap.gov.au/facility/234,Karatta Road,Other,Karatta Road,Robe,SA,,-37.16072226,139.7507934,TRUE,FALSE,,FALSE,FALSE,FALSE,FALSE,,FALSE,FALSE,FALSE,FALSE,FALSE,,FALSE,FALSE,,FALSE,FALSE,FALSE,,OPEN: 24 hours,,FALSE,FALSE,TRUE,FALSE,FALSE,FALSE,FALSE,FALSE,,FALSE,FALSE,FALSE,FALSE,FALSE
236,https://toiletmap.gov.au/facility/236,Lakeside Terrace,Park or reserve,Lakeside Terrace,Robe,SA,,-37.16993727,139.7689301,TRUE,FALSE,,FALSE,FALSE,FALSE,FALSE,,FALSE,FALSE,FALSE,FALSE,FALSE,,FALSE,FALSE,,FALSE,FALSE,FALSE,,OPEN: 24 hours,,TRUE,TRUE,FALSE,FALSE,FALSE,TRUE,FALSE,FALSE,Shower available.,FALSE,FALSE,FALSE,FALSE,FALSE
237,https://toiletmap.gov.au/facility/237,Esplanade,Park or reserve,Esplanade,Robe,SA,,-37.16469457,139.7819826,TRUE,FALSE,,FALSE,FALSE,FALSE,FALSE,,FALSE,FALSE,FALSE,FALSE,FALSE,,FALSE,FALSE,,FALSE,FALSE,FALSE,,OPEN: 24 hours,,TRUE,TRUE,FALSE,FALSE,FALSE,FALSE,FALSE,FALSE,,FALSE,FALSE,FALSE,FALSE,TRUE
238,https://toiletmap.gov.au/facility/238,Lipson Park,Park or reserve,Lipson Park,Robe,SA,,-37.16361596,139.7515847,FALSE,FALSE,,FALSE,FALSE,FALSE,FALSE,,FALSE,FALSE,FALSE,FALSE,FALSE,,FALSE,FALSE,,FALSE,FALSE,FALSE,,OPEN: 24 hours,,FALSE,FALSE,TRUE,FALSE,FALSE,FALSE,FALSE,FALSE,,FALSE,FALSE,FALSE,FALSE,FALSE
240,https://toiletmap.gov.au/facility/240,Mundy Terrace,Park or reserve,Mundy Terrace,Robe,SA,,-37.16266636,139.7571868,TRUE,FALSE,,FALSE,FALSE,FALSE,FALSE,,FALSE,FALSE,FALSE,FALSE,FALSE,,TRUE,FALSE,,FALSE,FALSE,FALSE,,OPEN: 24 hours,,TRUE,TRUE,FALSE,FALSE,FALSE,TRUE,FALSE,FALSE,,FALSE,FALSE,FALSE,FALSE,TRUE
242,https://toiletmap.gov.au/facility/242,Railway Terrace,Park or reserve,25 B55,Karoonda,SA,,-35.09444071,139.8970896,TRUE,FALSE,,FALSE,FALSE,FALSE,FALSE,,FALSE,FALSE,FALSE,FALSE,FALSE,,FALSE,FALSE,,FALSE,FALSE,FALSE,,OPEN: 24 hours,,TRUE,TRUE,FALSE,FALSE,FALSE,TRUE,FALSE,FALSE,,FALSE,FALSE,TRUE,FALSE,FALSE
243,https://toiletmap.gov.au/facility/243,Apex Park,Park or reserve,18 Stokes Road,Karoonda,SA,,-35.09579961,139.8902448,FALSE,FALSE,,FALSE,FALSE,FALSE,FALSE,,FALSE,FALSE,FALSE,FALSE,FALSE,,FALSE,FALSE,,FALSE,FALSE,FALSE,,OPEN: 24 hours,,TRUE,TRUE,FALSE,FALSE,FALSE,TRUE,FALSE,FALSE,,FALSE,FALSE,FALSE,FALSE,FALSE
244,https://toiletmap.gov.au/facility/244,Stephen Terrace,Other,Stephen Terrace,Gilberton,SA,,-34.89792163,138.6146909,FALSE,FALSE,,FALSE,FALSE,FALSE,FALSE,,FALSE,FALSE,FALSE,FALSE,FALSE,,FALSE,FALSE,,FALSE,FALSE,FALSE,,OPEN: Mon-Fri 8:30am-5pm,,TRUE,TRUE,FALSE,FALSE,FALSE,FALSE,FALSE,FALSE,,FALSE,FALSE,FALSE,FALSE,FALSE
245,https://toiletmap.gov.au/facility/245,Smith Street,Park or reserve,Smith Street,Walkerville,SA,,-34.89435934,138.6152748,FALSE,FALSE,,FALSE,FALSE,FALSE,FALSE,,FALSE,FALSE,FALSE,FALSE,FALSE,,FALSE,FALSE,,FALSE,FALSE,FALSE,,OPEN: 24 hours,,TRUE,TRUE,FALSE,FALSE,FALSE,TRUE,FALSE,FALSE,,FALSE,FALSE,FALSE,FALSE,FALSE
246,https://toiletmap.gov.au/facility/246,Willow Bend Reserve,Park or reserve,Ascot Avenue,Vale Park,SA,,-34.88862927,138.6282501,TRUE,TRUE,,FALSE,FALSE,FALSE,FALSE,,FALSE,FALSE,FALSE,FALSE,FALSE,,FALSE,FALSE,,FALSE,FALSE,FALSE,,OPEN: Daylight hours,,TRUE,TRUE,FALSE,FALSE,FALSE,TRUE,FALSE,FALSE,,TRUE,FALSE,FALSE,FALSE,FALSE
247,https://toiletmap.gov.au/facility/247,Beach Terrace,Other,Beach Terrace,Elliston,SA,,-33.64611667,134.885867,TRUE,FALSE,,FALSE,FALSE,FALSE,FALSE,,FALSE,FALSE,FALSE,FALSE,FALSE,,FALSE,FALSE,,FALSE,FALSE,FALSE,,OPEN: 24 hours,,TRUE,TRUE,FALSE,FALSE,FALSE,FALSE,FALSE,FALSE,,TRUE,FALSE,TRUE,FALSE,TRUE
249,https://toiletmap.gov.au/facility/249,Mallee Highway,Park or reserve,Mallee Highway,Sherlock,SA,,-35.3190164,139.8012587,TRUE,FALSE,,FALSE,FALSE,FALSE,FALSE,,FALSE,FALSE,FALSE,FALSE,FALSE,,FALSE,FALSE,,FALSE,FALSE,FALSE,,OPEN: 24 hours,,TRUE,TRUE,FALSE,FALSE,FALSE,FALSE,FALSE,FALSE,,FALSE,FALSE,FALSE,FALSE,FALSE
250,https://toiletmap.gov.au/facility/250,Port Kenny,Car park,Flinders Highway,Port Kenny,SA,,-33.16752699,134.6853934,FALSE,FALSE,,FALSE,FALSE,FALSE,FALSE,,FALSE,FALSE,FALSE,FALSE,FALSE,,FALSE,FALSE,,FALSE,FALSE,FALSE,,OPEN: 24 hours,,TRUE,TRUE,FALSE,FALSE,FALSE,FALSE,FALSE,FALSE,,FALSE,FALSE,FALSE,FALSE,FALSE
251,https://toiletmap.gov.au/facility/251,Venus Bay,Car park,14 Matson Terrace,Venus Bay,SA,,-33.23163515,134.6726332,TRUE,FALSE,,FALSE,FALSE,FALSE,FALSE,,FALSE,FALSE,FALSE,FALSE,FALSE,,FALSE,FALSE,,FALSE,FALSE,FALSE,,OPEN: 24 hours,,TRUE,TRUE,FALSE,FALSE,FALSE,FALSE,FALSE,FALSE,,FALSE,FALSE,FALSE,FALSE,FALSE
252,https://toiletmap.gov.au/facility/252,Lloyd Street,Other,Lloyd Street,Dimboola,VIC,,-36.45456726,142.0264675,TRUE,FALSE,,FALSE,FALSE,FALSE,FALSE,,FALSE,FALSE,FALSE,FALSE,FALSE,,FALSE,FALSE,,FALSE,FALSE,FALSE,,OPEN: 24 hours,,TRUE,TRUE,FALSE,FALSE,FALSE,TRUE,FALSE,FALSE,,FALSE,FALSE,FALSE,FALSE,FALSE
253,https://toiletmap.gov.au/facility/253,Lloyd Street,Bus station,Lloyd Street,Dimboola,VIC,,-36.45412096,142.0263738,FALSE,FALSE,,FALSE,FALSE,FALSE,FALSE,,FALSE,FALSE,FALSE,FALSE,FALSE,,TRUE,FALSE,,FALSE,FALSE,FALSE,,OPEN: 24 hours,,TRUE,TRUE,FALSE,FALSE,TRUE,TRUE,FALSE,FALSE,,FALSE,FALSE,FALSE,FALSE,TRUE
254,https://toiletmap.gov.au/facility/254,Charles Street,Other,Charles Street,Jeparit,VIC,,-36.14249388,141.9882419,TRUE,FALSE,,FALSE,FALSE,FALSE,FALSE,,FALSE,FALSE,FALSE,FALSE,FALSE,,FALSE,FALSE,,FALSE,FALSE,FALSE,,OPEN: 24 hours,,TRUE,TRUE,FALSE,FALSE,FALSE,TRUE,FALSE,FALSE,,FALSE,FALSE,FALSE,FALSE,FALSE
255,https://toiletmap.gov.au/facility/255,Roy Street,Other,Roy Street,Jeparit,VIC,,-36.1430491,141.9873694,TRUE,FALSE,,FALSE,FALSE,FALSE,FALSE,,FALSE,FALSE,FALSE,FALSE,FALSE,,FALSE,FALSE,,FALSE,FALSE,FALSE,,OPEN: 24 hours,,TRUE,TRUE,FALSE,FALSE,FALSE,FALSE,FALSE,FALSE,,FALSE,FALSE,FALSE,FALSE,FALSE
256,https://toiletmap.gov.au/facility/256,Western Highway,Bus station,Western Highway,Nhill,VIC,,-36.33426504,141.6489602,FALSE,FALSE,,FALSE,FALSE,FALSE,FALSE,,FALSE,FALSE,FALSE,FALSE,FALSE,,FALSE,FALSE,,FALSE,FALSE,FALSE,,OPEN: 24 hours,,TRUE,TRUE,FALSE,FALSE,FALSE,TRUE,FALSE,FALSE,,FALSE,FALSE,FALSE,FALSE,FALSE
257,https://toiletmap.gov.au/facility/257,Western Highway,Park or reserve,Western Highway,Nhill,VIC,,-36.33739237,141.6464373,TRUE,FALSE,,FALSE,FALSE,FALSE,FALSE,,FALSE,FALSE,FALSE,FALSE,FALSE,,FALSE,FALSE,,FALSE,FALSE,FALSE,,OPEN: 24 hours,,TRUE,TRUE,FALSE,FALSE,FALSE,TRUE,FALSE,FALSE,,FALSE,FALSE,FALSE,FALSE,FALSE
258,https://toiletmap.gov.au/facility/258,Federal Street,Other,29 Federal Street,Rainbow,VIC,,-35.89788355,141.9950019,FALSE,FALSE,,FALSE,FALSE,FALSE,FALSE,,FALSE,FALSE,FALSE,FALSE,FALSE,,FALSE,FALSE,,FALSE,FALSE,FALSE,,OPEN: 24 hours,,TRUE,TRUE,FALSE,FALSE,FALSE,TRUE,FALSE,FALSE,,FALSE,FALSE,FALSE,FALSE,FALSE
259,https://toiletmap.gov.au/facility/259,North Park Club Rooms,Sporting facility,Newington Road,Stawell,VIC,,-37.04931775,142.7746777,FALSE,FALSE,,TRUE,FALSE,FALSE,FALSE,,FALSE,FALSE,FALSE,FALSE,FALSE,,FALSE,FALSE,,FALSE,FALSE,FALSE,,OPEN: Variable hours,Locked facility - request required to have facility open through the Northern Grampians Shire Council.  Group/user requesting toilets to be opened are to pay for the cleaning costs.,TRUE,TRUE,FALSE,FALSE,FALSE,FALSE,FALSE,FALSE,,TRUE,FALSE,FALSE,FALSE,FALSE
260,https://toiletmap.gov.au/facility/260,North Park - Centre,Park or reserve,Lamont Street,Stawell,VIC,,-37.05133265,142.7758598,FALSE,FALSE,,FALSE,FALSE,FALSE,FALSE,,FALSE,FALSE,FALSE,FALSE,FALSE,,FALSE,FALSE,,FALSE,FALSE,FALSE,,OPEN: Daylight hours,,TRUE,TRUE,FALSE,FALSE,FALSE,TRUE,FALSE,FALSE,,FALSE,FALSE,FALSE,FALSE,FALSE
261,https://toiletmap.gov.au/facility/261,Scallan Street Car Park,Car park,Scallan Street,Stawell,VIC,,-37.05464467,142.7812683,FALSE,FALSE,,FALSE,FALSE,FALSE,FALSE,,FALSE,FALSE,FALSE,FALSE,FALSE,,TRUE,FALSE,,FALSE,FALSE,FALSE,,OPEN: Daylight hours,,TRUE,TRUE,FALSE,FALSE,FALSE,TRUE,FALSE,FALSE,,TRUE,FALSE,TRUE,FALSE,FALSE
262,https://toiletmap.gov.au/facility/262,Mall Entry,Other,Baylis Street,Stawell,VIC,,-37.05652858,142.7810249,TRUE,FALSE,,FALSE,FALSE,FALSE,FALSE,,FALSE,FALSE,FALSE,FALSE,FALSE,,TRUE,FALSE,,FALSE,FALSE,FALSE,,OPEN: Daylight hours,,TRUE,TRUE,FALSE,FALSE,FALSE,TRUE,FALSE,FALSE,,TRUE,FALSE,TRUE,FALSE,FALSE
263,https://toiletmap.gov.au/facility/263,Cato Park,Park or reserve,Florence Street,Stawell,VIC,,-37.05908112,142.7778681,FALSE,FALSE,,FALSE,FALSE,FALSE,FALSE,,FALSE,FALSE,FALSE,FALSE,FALSE,,FALSE,FALSE,,FALSE,FALSE,FALSE,,OPEN: Daylight hours,,TRUE,TRUE,FALSE,FALSE,FALSE,TRUE,FALSE,FALSE,,TRUE,FALSE,TRUE,FALSE,FALSE
264,https://toiletmap.gov.au/facility/264,Stawell Library,Community building,Sloane Street,Stawell,VIC,,-37.05553896,142.7833097,TRUE,FALSE,,FALSE,FALSE,FALSE,FALSE,,FALSE,FALSE,FALSE,FALSE,FALSE,,FALSE,FALSE,,FALSE,FALSE,FALSE,,"OPEN: Tue-Fri 10am-5:30pm, Sat 10am-12pm, Sun 2pm-5pm",,TRUE,TRUE,FALSE,FALSE,FALSE,TRUE,FALSE,FALSE,,FALSE,FALSE,FALSE,FALSE,FALSE
265,https://toiletmap.gov.au/facility/265,Central Park,Park or reserve,Victoria Street,Stawell,VIC,,-37.05853807,142.7756712,FALSE,FALSE,,FALSE,FALSE,FALSE,FALSE,,FALSE,FALSE,FALSE,FALSE,FALSE,,FALSE,FALSE,,FALSE,FALSE,FALSE,,OPEN: Daylight hours,,TRUE,TRUE,FALSE,FALSE,FALSE,TRUE,FALSE,FALSE,,TRUE,FALSE,TRUE,FALSE,FALSE
269,https://toiletmap.gov.au/facility/269,Halls Gap,Other,109 Grampians Road,Halls Gap,VIC,,-37.13991229,142.5178644,TRUE,TRUE,,FALSE,FALSE,FALSE,FALSE,,FALSE,FALSE,FALSE,FALSE,FALSE,,FALSE,FALSE,,FALSE,FALSE,FALSE,,OPEN: Daylight hours,,TRUE,TRUE,FALSE,FALSE,FALSE,TRUE,FALSE,FALSE,,FALSE,FALSE,TRUE,FALSE,FALSE
270,https://toiletmap.gov.au/facility/270,Great Western,Park or reserve,Western Highway,Great Western,VIC,,-37.15341414,142.8559783,FALSE,FALSE,,FALSE,FALSE,FALSE,FALSE,,FALSE,FALSE,FALSE,FALSE,FALSE,,FALSE,FALSE,,FALSE,FALSE,FALSE,,OPEN: 24 hours,,FALSE,FALSE,TRUE,FALSE,TRUE,TRUE,FALSE,FALSE,Sharps disposal in ladies only. Two female only toilets (one ambulant) and three unisex toilets (one ambulant and one accessible).,TRUE,FALSE,TRUE,FALSE,FALSE
272,https://toiletmap.gov.au/facility/272,Brisbane Street,Park or reserve,Brisbane Street,Merriwa,NSW,,-32.13972275,150.3609021,FALSE,FALSE,,FALSE,FALSE,FALSE,FALSE,access over grass,FALSE,FALSE,FALSE,FALSE,FALSE,,FALSE,FALSE,,FALSE,FALSE,FALSE,,OPEN: 24 hours,,TRUE,TRUE,FALSE,FALSE,FALSE,FALSE,FALSE,FALSE,,FALSE,FALSE,FALSE,FALSE,FALSE
273,https://toiletmap.gov.au/facility/273,Merriwa Apex Park,Park or reserve,Vennachar Street,Merriwa,NSW,,-32.14023721,150.3552729,TRUE,FALSE,,FALSE,FALSE,FALSE,FALSE,Gentle slope to accessible toilet.,FALSE,FALSE,FALSE,FALSE,FALSE,,TRUE,FALSE,,FALSE,FALSE,FALSE,,OPEN: 24 hours,,TRUE,TRUE,FALSE,FALSE,FALSE,TRUE,FALSE,TRUE,Door is wide and opens outward. Cubicle floor space is small. Toilet seat height is low. Grab rails available.,FALSE,FALSE,FALSE,FALSE,FALSE
274,https://toiletmap.gov.au/facility/274,Golden Highway,Other,Golden Highway,Merriwa,NSW,,-32.138957,150.3499729,FALSE,FALSE,,FALSE,FALSE,FALSE,FALSE,,FALSE,FALSE,FALSE,FALSE,FALSE,,FALSE,FALSE,,FALSE,FALSE,FALSE,,OPEN: 24 hours,,TRUE,TRUE,FALSE,FALSE,FALSE,FALSE,FALSE,FALSE,,TRUE,FALSE,TRUE,FALSE,FALSE
275,https://toiletmap.gov.au/facility/275,Merriwa Caravan Park,Caravan park,Bettington Street,Merriwa,NSW,,-32.13858818,150.3504978,TRUE,FALSE,,FALSE,FALSE,FALSE,FALSE,,FALSE,FALSE,FALSE,FALSE,FALSE,,FALSE,FALSE,,FALSE,FALSE,FALSE,,OPEN: 24 hours,,TRUE,TRUE,FALSE,FALSE,FALSE,TRUE,TRUE,FALSE,Door is narrow and opens outward. Cubicle floor space is small. Grab rails available.,FALSE,FALSE,FALSE,FALSE,FALSE
278,https://toiletmap.gov.au/facility/278,Wilson Memorial Park,Park or reserve,New England Highway,Murrurundi,NSW,,-31.76324934,150.8354505,FALSE,FALSE,,FALSE,FALSE,FALSE,FALSE,,FALSE,FALSE,FALSE,FALSE,FALSE,,FALSE,FALSE,,FALSE,FALSE,FALSE,,OPEN: 24 hours,,TRUE,TRUE,FALSE,FALSE,FALSE,FALSE,FALSE,FALSE,,FALSE,FALSE,TRUE,FALSE,FALSE
279,https://toiletmap.gov.au/facility/279,Rural Transaction Centre,Food outlet,New England Highway,Murrurundi,NSW,,-31.76378324,150.8341922,TRUE,FALSE,,FALSE,FALSE,FALSE,FALSE,best accessibility is from the rear carpark,FALSE,FALSE,FALSE,FALSE,FALSE,,TRUE,FALSE,,FALSE,FALSE,FALSE,,OPEN: Daylight hours,,TRUE,TRUE,FALSE,FALSE,FALSE,TRUE,TRUE,TRUE,,FALSE,FALSE,FALSE,FALSE,FALSE
280,https://toiletmap.gov.au/facility/280,Professional Row Park,Park or reserve,New England Highway,Murrurundi,NSW,,-31.76018009,150.8282355,TRUE,FALSE,,FALSE,FALSE,FALSE,FALSE,gravel,FALSE,FALSE,FALSE,FALSE,FALSE,,FALSE,FALSE,,FALSE,FALSE,FALSE,,OPEN: 24 hours,,TRUE,TRUE,FALSE,FALSE,FALSE,FALSE,FALSE,FALSE,,FALSE,FALSE,FALSE,FALSE,FALSE
281,https://toiletmap.gov.au/facility/281,King George V Park,Park or reserve,New England Highway,Willow Tree,NSW,,-31.64949362,150.7261788,TRUE,FALSE,,FALSE,FALSE,FALSE,FALSE,,FALSE,FALSE,FALSE,FALSE,FALSE,,FALSE,FALSE,,FALSE,FALSE,FALSE,,OPEN: 24 hours,,TRUE,TRUE,FALSE,FALSE,FALSE,FALSE,FALSE,FALSE,,TRUE,FALSE,TRUE,FALSE,FALSE
300,https://toiletmap.gov.au/facility/300,Carberry Park,Park or reserve,Otway Street,Gundagai,NSW,,-35.06332856,148.1028118,TRUE,FALSE,Parking is located adjacent to the toilets.,FALSE,FALSE,FALSE,FALSE,,FALSE,FALSE,FALSE,FALSE,FALSE,,FALSE,FALSE,,FALSE,FALSE,FALSE,,OPEN: 24 hours,,TRUE,TRUE,FALSE,FALSE,FALSE,TRUE,FALSE,FALSE,,FALSE,FALSE,FALSE,FALSE,FALSE
301,https://toiletmap.gov.au/facility/301,Yarri Park,Park or reserve,Landon Street,Gundagai,NSW,,-35.06628175,148.1040496,TRUE,TRUE,,FALSE,FALSE,FALSE,FALSE,,FALSE,FALSE,FALSE,FALSE,FALSE,,FALSE,FALSE,,FALSE,FALSE,FALSE,,OPEN: 24 hours,,TRUE,TRUE,FALSE,FALSE,FALSE,TRUE,FALSE,FALSE,,FALSE,FALSE,FALSE,FALSE,FALSE
302,https://toiletmap.gov.au/facility/302,Newson Park,Park or reserve,Albury & Station Streets,Harden,NSW,,-34.55751099,148.3707196,TRUE,FALSE,,FALSE,FALSE,FALSE,FALSE,,FALSE,FALSE,FALSE,FALSE,FALSE,,FALSE,FALSE,,FALSE,FALSE,FALSE,,OPEN: 24 hours,,TRUE,TRUE,FALSE,FALSE,FALSE,FALSE,FALSE,FALSE,Toilets are attached to Swimming Pool building. Concrete path from Albury Street,TRUE,FALSE,TRUE,FALSE,FALSE
303,https://toiletmap.gov.au/facility/303,Harden Shopping Centre,Shopping centre,Neill Street,Harden,NSW,,-34.55308909,148.3701806,TRUE,TRUE,Parking is in the main street,FALSE,FALSE,FALSE,FALSE,Toilets are located inside the IGA supermarket,FALSE,FALSE,FALSE,FALSE,FALSE,,TRUE,FALSE,,FALSE,FALSE,FALSE,,OPEN: 7:30am-7pm,Located inside supermarket,TRUE,TRUE,FALSE,FALSE,FALSE,TRUE,FALSE,FALSE,Toilets are located within IGA Supermarket building,FALSE,FALSE,TRUE,FALSE,FALSE
304,https://toiletmap.gov.au/facility/304,Coddington Park,Park or reserve,Neill Street,Murrumburrah,NSW,,-34.54981465,148.3531978,TRUE,TRUE,Parking for cars and buses,FALSE,FALSE,FALSE,FALSE,,FALSE,FALSE,FALSE,FALSE,FALSE,,FALSE,FALSE,,FALSE,FALSE,FALSE,,OPEN: 24 hours,,TRUE,TRUE,FALSE,FALSE,FALSE,TRUE,FALSE,FALSE,,TRUE,FALSE,TRUE,FALSE,FALSE
305,https://toiletmap.gov.au/facility/305,Old Court House,Other,Vernon Road,Murrumburrah,NSW,,-34.54827887,148.3491629,TRUE,FALSE,Parking on Vernon Street or Albury Street,FALSE,FALSE,FALSE,FALSE,,FALSE,FALSE,FALSE,FALSE,FALSE,,FALSE,FALSE,,FALSE,FALSE,FALSE,,OPEN: 24 hours,,TRUE,TRUE,FALSE,FALSE,FALSE,FALSE,FALSE,FALSE,At the old Court House Murrumburrah in the rear yard,TRUE,FALSE,TRUE,FALSE,FALSE
306,https://toiletmap.gov.au/facility/306,Valentia Street Wharf,Other,Valentia Street,Woolwich,NSW,,-33.83846985,151.1761735,TRUE,TRUE,,FALSE,FALSE,FALSE,FALSE,,FALSE,FALSE,FALSE,FALSE,FALSE,,TRUE,FALSE,,FALSE,FALSE,FALSE,,OPEN: 24 hours,,TRUE,TRUE,FALSE,FALSE,FALSE,TRUE,TRUE,FALSE,Door is wide and opens inwards. Force to open door is light. Grab rails and shelf available.,FALSE,FALSE,FALSE,FALSE,FALSE
308,https://toiletmap.gov.au/facility/308,Weil Park,Park or reserve,Woolwich Road,Woolwich,NSW,,-33.84042024,151.1679656,TRUE,FALSE,,FALSE,FALSE,FALSE,FALSE,"Difficulty rating: high,  grass and slope",FALSE,FALSE,FALSE,FALSE,FALSE,,FALSE,FALSE,,FALSE,FALSE,FALSE,,"OPEN: Mon-Fri 7:30am-3:30pm, Sat-Sun 7:30am-4pm",,FALSE,FALSE,TRUE,FALSE,FALSE,TRUE,TRUE,FALSE,Door is wide and opens inward. Cubicle floor space is large and force to open door light. Grab rails available.,FALSE,FALSE,FALSE,FALSE,FALSE
309,https://toiletmap.gov.au/facility/309,Gladesville Reserve,Park or reserve,Crown Street,Henley,NSW,,-33.84099785,151.137324,FALSE,FALSE,,FALSE,FALSE,FALSE,FALSE,,FALSE,FALSE,FALSE,FALSE,FALSE,,FALSE,FALSE,,FALSE,FALSE,FALSE,,OPEN: 7am-7pm,,TRUE,TRUE,FALSE,FALSE,FALSE,FALSE,FALSE,FALSE,,FALSE,FALSE,FALSE,FALSE,FALSE
310,https://toiletmap.gov.au/facility/310,Boronia Park Oval,Park or reserve,4 Park Road,Hunters Hill,NSW,,-33.82638838,151.1379611,TRUE,TRUE,,FALSE,FALSE,FALSE,FALSE,Uneven surface some bumps in footpath. Toilet located at bottom of grand stand.,FALSE,FALSE,FALSE,FALSE,FALSE,,FALSE,FALSE,,FALSE,FALSE,FALSE,,OPEN: 7am-7pm,,TRUE,TRUE,FALSE,FALSE,TRUE,TRUE,FALSE,TRUE,Door is wide and opens outward. Cubicle floor space is large and  force to open door light. Grab rails available.,FALSE,FALSE,FALSE,FALSE,FALSE
311,https://toiletmap.gov.au/facility/311,Buffalo Creek Reserve,Park or reserve,Pittwater Road,Hunters Hill,NSW,,-33.81604898,151.1373602,TRUE,FALSE,Toilet located near cricket oval.,FALSE,FALSE,FALSE,FALSE,"Difficulty rating- medium, Small lip between path and toilet block.",FALSE,FALSE,FALSE,FALSE,FALSE,,TRUE,FALSE,,FALSE,FALSE,FALSE,,OPEN: 7am-7pm,,TRUE,TRUE,FALSE,FALSE,FALSE,TRUE,TRUE,FALSE,Door is wide and opens inward. Force to open door is heavy. Grab rails and shelf available.,FALSE,FALSE,FALSE,FALSE,FALSE
312,https://toiletmap.gov.au/facility/312,Larkin Oval,Sporting facility,Tabratong Street,Nyngan,NSW,,-31.56542585,147.1936089,FALSE,FALSE,,FALSE,FALSE,FALSE,FALSE,,FALSE,FALSE,FALSE,FALSE,FALSE,,FALSE,FALSE,,FALSE,FALSE,FALSE,,OPEN: Variable hours,Open during sporting events only.,TRUE,TRUE,FALSE,FALSE,FALSE,FALSE,FALSE,FALSE,,FALSE,FALSE,FALSE,FALSE,FALSE
313,https://toiletmap.gov.au/facility/313,Davidson Park,Park or reserve,Pangee Street,Nyngan,NSW,,-31.56259236,147.1958213,FALSE,FALSE,,FALSE,FALSE,FALSE,FALSE,,FALSE,FALSE,FALSE,FALSE,FALSE,,FALSE,FALSE,,FALSE,FALSE,FALSE,,OPEN: 6am-6pm,,TRUE,TRUE,FALSE,FALSE,FALSE,TRUE,FALSE,FALSE,,FALSE,FALSE,FALSE,FALSE,FALSE
314,https://toiletmap.gov.au/facility/314,Frank Smith Oval,Sporting facility,Terangion Street,Nyngan,NSW,,-31.56992841,147.1889901,FALSE,FALSE,,FALSE,FALSE,FALSE,FALSE,,FALSE,FALSE,FALSE,FALSE,FALSE,,FALSE,FALSE,,FALSE,FALSE,FALSE,,OPEN: Variable hours,Toilets are open during sporting events,TRUE,TRUE,FALSE,FALSE,FALSE,FALSE,FALSE,FALSE,,FALSE,FALSE,FALSE,FALSE,FALSE
315,https://toiletmap.gov.au/facility/315,Racecourse,Sporting facility,Hoskins Street,Nyngan,NSW,,-31.57264534,147.1993535,FALSE,FALSE,,FALSE,FALSE,FALSE,FALSE,,FALSE,FALSE,FALSE,FALSE,FALSE,,FALSE,FALSE,,FALSE,FALSE,FALSE,,OPEN: Variable hours,Facilities are only open for special events,TRUE,TRUE,FALSE,FALSE,FALSE,TRUE,FALSE,FALSE,,FALSE,FALSE,FALSE,FALSE,FALSE
316,https://toiletmap.gov.au/facility/316,Nyngan Showground,Other,Hoskins Street,Nyngan,NSW,,-31.5756341,147.1970247,FALSE,FALSE,,FALSE,FALSE,FALSE,FALSE,,FALSE,FALSE,FALSE,FALSE,FALSE,,TRUE,FALSE,,FALSE,FALSE,FALSE,,OPEN: Variable hours,Facilities are only open for special events,TRUE,TRUE,FALSE,FALSE,FALSE,TRUE,FALSE,FALSE,There are 4 toilet buildings in the Showground area,FALSE,FALSE,FALSE,FALSE,TRUE
317,https://toiletmap.gov.au/facility/317,Glencoe Bicentennial Park,Park or reserve,New England Highway,Glencoe,NSW,,-29.9286595,151.7235865,TRUE,FALSE,,FALSE,FALSE,FALSE,FALSE,Note this toilet is not classed as an accessible toilet but is large enough to fit a wheelchair. There is also a 60 mm step onto the slab (see photo of approach).,FALSE,FALSE,FALSE,FALSE,FALSE,,FALSE,FALSE,,FALSE,FALSE,FALSE,,OPEN: 24 hours,,FALSE,FALSE,TRUE,FALSE,FALSE,TRUE,FALSE,TRUE,Sliding door is narrow. Force to open door is medium. Toilet seat height is low. No grab rails.,FALSE,FALSE,FALSE,FALSE,FALSE
318,https://toiletmap.gov.au/facility/318,Severn Street,Park or reserve,26 Young Street,Deepwater,NSW,,-29.44236925,151.847441,TRUE,FALSE,,FALSE,FALSE,FALSE,FALSE,,FALSE,FALSE,FALSE,FALSE,FALSE,,FALSE,FALSE,,FALSE,FALSE,FALSE,,OPEN: 24 hours,,FALSE,FALSE,TRUE,FALSE,TRUE,TRUE,TRUE,TRUE,,FALSE,FALSE,FALSE,FALSE,FALSE
319,https://toiletmap.gov.au/facility/319,O'Donnell Street,Park or reserve,Post Office Street,Emmaville,NSW,,-29.4441085,151.5989085,TRUE,FALSE,,FALSE,FALSE,FALSE,FALSE,Located opposite Post Office,FALSE,FALSE,FALSE,FALSE,FALSE,,FALSE,FALSE,,FALSE,FALSE,FALSE,,OPEN: Daylight hours,,TRUE,TRUE,FALSE,FALSE,FALSE,TRUE,TRUE,TRUE,Clubicle floor space is small and force to open door light. Toilet seat height is low. No grab rails.,FALSE,FALSE,FALSE,FALSE,FALSE
320,https://toiletmap.gov.au/facility/320,Town Hall,Other,Kent Street,Maryborough,QLD,,-25.53767189,152.7019058,FALSE,FALSE,,FALSE,FALSE,FALSE,FALSE,,FALSE,FALSE,FALSE,FALSE,FALSE,,FALSE,FALSE,,FALSE,FALSE,FALSE,,OPEN: Daylight hours,,TRUE,TRUE,FALSE,FALSE,FALSE,FALSE,FALSE,FALSE,,TRUE,FALSE,FALSE,FALSE,FALSE
321,https://toiletmap.gov.au/facility/321,Queens Park,Park or reserve,Bazaar Street,Maryborough,QLD,,-25.53730734,152.7047439,FALSE,FALSE,,FALSE,FALSE,FALSE,FALSE,,FALSE,FALSE,FALSE,FALSE,FALSE,,FALSE,FALSE,,FALSE,FALSE,FALSE,,OPEN: 24 hours,,FALSE,FALSE,TRUE,FALSE,FALSE,TRUE,FALSE,FALSE,,TRUE,FALSE,FALSE,FALSE,FALSE
322,https://toiletmap.gov.au/facility/322,Anzac Park Splashside,Park or reserve,37 Cheapside Street,Maryborough,QLD,,-25.53448531,152.687607,TRUE,TRUE,,FALSE,FALSE,TRUE,FALSE,,TRUE,TRUE,TRUE,TRUE,FALSE,,FALSE,FALSE,,FALSE,FALSE,FALSE,,OPEN: 24 hours,,TRUE,TRUE,FALSE,FALSE,FALSE,TRUE,FALSE,FALSE,,TRUE,FALSE,FALSE,FALSE,FALSE
323,https://toiletmap.gov.au/facility/323,Rose Gardens,Park or reserve,Wood Street,Maryborough,QLD,,-25.53128104,152.6953761,FALSE,FALSE,,FALSE,FALSE,FALSE,FALSE,,FALSE,FALSE,FALSE,FALSE,FALSE,,FALSE,FALSE,,FALSE,FALSE,FALSE,,OPEN: 24 hours,,TRUE,TRUE,FALSE,FALSE,FALSE,FALSE,FALSE,FALSE,,TRUE,FALSE,FALSE,FALSE,FALSE
324,https://toiletmap.gov.au/facility/324,Davies Car Park,Car park,Bazaar Street,Maryborough,QLD,,-25.54058813,152.7017757,FALSE,FALSE,,FALSE,FALSE,FALSE,FALSE,,FALSE,FALSE,FALSE,FALSE,FALSE,,FALSE,FALSE,,FALSE,FALSE,FALSE,,OPEN: 24 hours,,TRUE,TRUE,FALSE,FALSE,FALSE,FALSE,FALSE,FALSE,,TRUE,FALSE,FALSE,FALSE,FALSE
325,https://toiletmap.gov.au/facility/325,McDowell Car Park,Car park,Kent Street,Maryborough,QLD,,-25.53678661,152.7014372,FALSE,TRUE,,FALSE,FALSE,FALSE,FALSE,,FALSE,FALSE,FALSE,FALSE,FALSE,,FALSE,FALSE,,FALSE,FALSE,FALSE,,OPEN: 24 hours,,FALSE,FALSE,TRUE,FALSE,FALSE,TRUE,FALSE,FALSE,,TRUE,FALSE,FALSE,FALSE,FALSE
327,https://toiletmap.gov.au/facility/327,Aquatic Centre,Park or reserve,South Street,Maryborough,QLD,,-25.54372924,152.6891669,FALSE,FALSE,,FALSE,FALSE,FALSE,FALSE,,FALSE,FALSE,FALSE,FALSE,FALSE,,FALSE,FALSE,,FALSE,FALSE,FALSE,,OPEN: 24 hours,,TRUE,TRUE,FALSE,FALSE,FALSE,TRUE,FALSE,FALSE,,TRUE,FALSE,FALSE,FALSE,FALSE
328,https://toiletmap.gov.au/facility/328,Oakhurst Park,Park or reserve,Royle Street,Maryborough West,QLD,,-25.51980538,152.666252,FALSE,FALSE,,FALSE,FALSE,FALSE,FALSE,,FALSE,FALSE,FALSE,FALSE,FALSE,,FALSE,FALSE,,FALSE,FALSE,FALSE,,OPEN: 24 hours,,TRUE,TRUE,FALSE,FALSE,FALSE,FALSE,FALSE,FALSE,,TRUE,FALSE,FALSE,FALSE,FALSE
329,https://toiletmap.gov.au/facility/329,Tinana Reserve,Park or reserve,Gympie Road,Tinana,QLD,,-25.54808741,152.6809351,FALSE,FALSE,,FALSE,FALSE,FALSE,FALSE,,FALSE,FALSE,FALSE,FALSE,FALSE,,FALSE,FALSE,,FALSE,FALSE,FALSE,,OPEN: 24 hours,,TRUE,TRUE,FALSE,FALSE,FALSE,FALSE,FALSE,FALSE,,TRUE,FALSE,FALSE,FALSE,FALSE
330,https://toiletmap.gov.au/facility/330,Granville Park,Park or reserve,Odessa Street,Granville,QLD,,-25.54019087,152.7167237,FALSE,TRUE,,FALSE,FALSE,FALSE,FALSE,,FALSE,FALSE,FALSE,FALSE,FALSE,,FALSE,FALSE,,FALSE,FALSE,FALSE,,OPEN: 24 hours,,TRUE,TRUE,FALSE,FALSE,FALSE,TRUE,FALSE,FALSE,,TRUE,FALSE,FALSE,FALSE,FALSE
331,https://toiletmap.gov.au/facility/331,Marroom Park,Park or reserve,Esplanade,Maaroom,QLD,,-25.61224146,152.8753546,FALSE,FALSE,,FALSE,FALSE,FALSE,FALSE,,FALSE,FALSE,FALSE,FALSE,FALSE,,FALSE,FALSE,,FALSE,FALSE,FALSE,,OPEN: 24 hours,,TRUE,TRUE,FALSE,FALSE,FALSE,FALSE,FALSE,FALSE,,TRUE,FALSE,FALSE,FALSE,FALSE
332,https://toiletmap.gov.au/facility/332,Big Tuan 2,Other,Eckert Road,Boonooroo,QLD,,-25.67252727,152.8878198,FALSE,FALSE,,FALSE,FALSE,FALSE,FALSE,,FALSE,FALSE,FALSE,FALSE,FALSE,,FALSE,FALSE,,FALSE,FALSE,FALSE,,OPEN: 24 hours,,TRUE,TRUE,FALSE,FALSE,FALSE,FALSE,FALSE,FALSE,,TRUE,FALSE,FALSE,FALSE,FALSE
334,https://toiletmap.gov.au/facility/334,Big Tuan 1,Other,Tuan Esplanade,Tuan,QLD,,-25.68503116,152.8777022,TRUE,FALSE,,FALSE,FALSE,FALSE,FALSE,,FALSE,FALSE,FALSE,FALSE,FALSE,,FALSE,FALSE,,FALSE,FALSE,FALSE,,OPEN: 24 hours,,TRUE,TRUE,FALSE,FALSE,FALSE,FALSE,FALSE,FALSE,,TRUE,FALSE,FALSE,FALSE,FALSE
335,https://toiletmap.gov.au/facility/335,Poona Point,Park or reserve,Boronia Drive,Poona,QLD,,-25.71209264,152.9218964,FALSE,FALSE,,FALSE,FALSE,FALSE,FALSE,,FALSE,FALSE,FALSE,FALSE,FALSE,,FALSE,FALSE,,FALSE,FALSE,FALSE,,OPEN: 24 hours,,TRUE,TRUE,FALSE,FALSE,FALSE,FALSE,FALSE,FALSE,Chemical toilet disposal is not allowed at this site,TRUE,FALSE,FALSE,FALSE,FALSE
336,https://toiletmap.gov.au/facility/336,Poona Boat Ramp,Park or reserve,Owen Cox Street,Poona,QLD,,-25.7226686,152.9127506,FALSE,FALSE,,FALSE,FALSE,FALSE,FALSE,,FALSE,FALSE,FALSE,FALSE,FALSE,,FALSE,FALSE,,FALSE,FALSE,FALSE,,OPEN: 24 hours,,TRUE,TRUE,FALSE,FALSE,FALSE,TRUE,FALSE,FALSE,Chemical toilet disposal is not allowed at this site,TRUE,FALSE,FALSE,FALSE,FALSE
337,https://toiletmap.gov.au/facility/337,Eurong Fraser Island,Park or reserve,Esplanade,Fraser Island,QLD,,-25.50476345,153.1270452,FALSE,FALSE,,FALSE,FALSE,FALSE,FALSE,,FALSE,FALSE,FALSE,FALSE,FALSE,,FALSE,FALSE,,FALSE,FALSE,FALSE,,OPEN: 24 hours,,TRUE,TRUE,FALSE,FALSE,FALSE,FALSE,FALSE,FALSE,,FALSE,FALSE,TRUE,FALSE,FALSE
338,https://toiletmap.gov.au/facility/338,Centenary Park,Park or reserve,49 King Street,Clifton,QLD,,-27.93190107,151.9053113,TRUE,FALSE,,FALSE,FALSE,FALSE,FALSE,,FALSE,FALSE,FALSE,FALSE,FALSE,,FALSE,FALSE,,FALSE,FALSE,FALSE,,OPEN: 24 hours,,TRUE,TRUE,FALSE,FALSE,FALSE,TRUE,FALSE,FALSE,,FALSE,FALSE,FALSE,FALSE,FALSE
339,https://toiletmap.gov.au/facility/339,FE Logan Hall,Other,Tooth Street,Clifton,QLD,,-27.92841462,151.9054042,TRUE,TRUE,,TRUE,FALSE,FALSE,FALSE,,FALSE,FALSE,FALSE,FALSE,FALSE,,FALSE,FALSE,,FALSE,FALSE,FALSE,,OPEN: Variable hours,Toilet is available when hall is in use,TRUE,TRUE,FALSE,FALSE,FALSE,TRUE,FALSE,FALSE,,FALSE,TRUE,TRUE,FALSE,FALSE
341,https://toiletmap.gov.au/facility/341,Elsie Jones Park,Park or reserve,2 Alden Street,Clifton,QLD,,-27.9313651,151.9124445,FALSE,FALSE,,FALSE,FALSE,FALSE,FALSE,,FALSE,FALSE,FALSE,FALSE,FALSE,,FALSE,FALSE,,FALSE,FALSE,FALSE,,OPEN: 24 hours,,TRUE,TRUE,FALSE,FALSE,FALSE,TRUE,FALSE,FALSE,,FALSE,FALSE,FALSE,FALSE,FALSE
343,https://toiletmap.gov.au/facility/343,Clifton Recreation Grounds,Sporting facility,2 Davenport Street,Clifton,QLD,,-27.92618481,151.9137118,TRUE,TRUE,,FALSE,FALSE,FALSE,FALSE,,TRUE,FALSE,TRUE,TRUE,FALSE,,FALSE,FALSE,,FALSE,FALSE,FALSE,,OPEN: 24 hours,,TRUE,TRUE,FALSE,FALSE,FALSE,TRUE,FALSE,FALSE,,FALSE,FALSE,TRUE,FALSE,TRUE
344,https://toiletmap.gov.au/facility/344,Sister Kenny Park,Park or reserve,7 Tooth Street,Nobby,QLD,,-27.85337513,151.9030284,FALSE,FALSE,,FALSE,FALSE,FALSE,FALSE,,FALSE,FALSE,FALSE,FALSE,FALSE,,FALSE,FALSE,,FALSE,FALSE,FALSE,,OPEN: 24 hours,,TRUE,TRUE,FALSE,FALSE,FALSE,TRUE,FALSE,FALSE,,FALSE,FALSE,FALSE,FALSE,FALSE
345,https://toiletmap.gov.au/facility/345,Landsborough Highway,Other,Landsborough Highway,Barcaldine,QLD,,-23.54992775,145.2402413,FALSE,FALSE,,FALSE,FALSE,FALSE,FALSE,,FALSE,FALSE,FALSE,FALSE,FALSE,,FALSE,FALSE,,FALSE,FALSE,FALSE,,OPEN: 24 hours,,TRUE,TRUE,FALSE,FALSE,FALSE,FALSE,FALSE,FALSE,,FALSE,FALSE,FALSE,FALSE,FALSE
346,https://toiletmap.gov.au/facility/346,Barcaldine Railway Station,Train station,Oak Street,Barcaldine,QLD,,-23.55235288,145.2846797,FALSE,FALSE,,FALSE,FALSE,FALSE,FALSE,,FALSE,FALSE,FALSE,FALSE,FALSE,,FALSE,FALSE,,FALSE,FALSE,FALSE,,OPEN: Variable hours,Toilets are only open when a passanger train arrives,TRUE,TRUE,FALSE,FALSE,FALSE,FALSE,FALSE,FALSE,,FALSE,FALSE,FALSE,FALSE,FALSE
347,https://toiletmap.gov.au/facility/347,Shire Council Park,Park or reserve,Beech Street,Barcaldine,QLD,,-23.55411509,145.2886683,FALSE,FALSE,,FALSE,FALSE,FALSE,FALSE,,FALSE,FALSE,FALSE,FALSE,FALSE,,TRUE,FALSE,,FALSE,FALSE,FALSE,,OPEN: 24 hours,,TRUE,TRUE,FALSE,FALSE,FALSE,TRUE,FALSE,FALSE,,FALSE,FALSE,FALSE,FALSE,FALSE
348,https://toiletmap.gov.au/facility/348,J.D. Bennett Sporting Complex - Caravan Park,Caravan park,Pine Street,Barcaldine,QLD,,-23.54983217,145.2952299,FALSE,FALSE,,FALSE,FALSE,FALSE,FALSE,,FALSE,FALSE,FALSE,FALSE,FALSE,,FALSE,FALSE,,FALSE,FALSE,FALSE,,OPEN: 24 hours,,TRUE,TRUE,FALSE,FALSE,FALSE,TRUE,FALSE,FALSE,,FALSE,FALSE,FALSE,FALSE,FALSE
349,https://toiletmap.gov.au/facility/349,Capricorn Highway,Other,Capricorn Highway,Barcaldine,QLD,,-23.55214015,145.3078885,FALSE,FALSE,,FALSE,FALSE,FALSE,FALSE,,FALSE,FALSE,FALSE,FALSE,FALSE,,FALSE,FALSE,,FALSE,FALSE,FALSE,,OPEN: 24 hours,,TRUE,TRUE,FALSE,FALSE,FALSE,FALSE,FALSE,FALSE,,FALSE,FALSE,FALSE,FALSE,FALSE
350,https://toiletmap.gov.au/facility/350,Lake Dyer Camping & Caravan Grounds,Park or reserve,Christensen Road,Laidley Heights,QLD,,-27.63277228,152.3773379,TRUE,TRUE,,FALSE,FALSE,FALSE,FALSE,Shower keys can be obtained from the on site caretaker 24/7,FALSE,FALSE,FALSE,FALSE,FALSE,,FALSE,FALSE,,FALSE,FALSE,FALSE,,OPEN: Daylight hours,,TRUE,TRUE,FALSE,FALSE,FALSE,TRUE,FALSE,FALSE,"Camping permitted, contact the on site caretaker",FALSE,TRUE,TRUE,FALSE,TRUE
351,https://toiletmap.gov.au/facility/351,Anzac Park War Memorial,Park or reserve,Victoria Street,Forest Hill,QLD,,-27.58897907,152.3571502,TRUE,FALSE,,FALSE,FALSE,FALSE,FALSE,,FALSE,FALSE,FALSE,FALSE,FALSE,,FALSE,FALSE,,FALSE,FALSE,FALSE,,OPEN: 24 hours,,TRUE,TRUE,FALSE,FALSE,FALSE,FALSE,FALSE,FALSE,,TRUE,FALSE,FALSE,FALSE,FALSE
352,https://toiletmap.gov.au/facility/352,State Emergency Service Depot,Park or reserve,Railway Street,Forest Hill,QLD,,-27.58734763,152.355886,FALSE,FALSE,,FALSE,FALSE,FALSE,FALSE,,FALSE,FALSE,FALSE,FALSE,FALSE,,FALSE,FALSE,,FALSE,FALSE,FALSE,,OPEN: 24 hours,,TRUE,TRUE,FALSE,FALSE,FALSE,FALSE,FALSE,FALSE,,FALSE,FALSE,FALSE,FALSE,FALSE
353,https://toiletmap.gov.au/facility/353,Glenore Grove Park & Rural Fire Brigade,Park or reserve,Brightview Road,Glenore Grove,QLD,,-27.53057946,152.409184,FALSE,FALSE,,FALSE,FALSE,FALSE,FALSE,,FALSE,FALSE,FALSE,FALSE,FALSE,,FALSE,FALSE,,FALSE,FALSE,FALSE,,OPEN: 24 hours,,TRUE,TRUE,FALSE,FALSE,FALSE,FALSE,FALSE,FALSE,,TRUE,FALSE,FALSE,FALSE,FALSE
354,https://toiletmap.gov.au/facility/354,Bertrand Avenue Park,Park or reserve,Bertrand Avenue,Kensington Grove,QLD,,-27.52913523,152.4550739,TRUE,TRUE,,FALSE,FALSE,FALSE,FALSE,,FALSE,FALSE,FALSE,FALSE,FALSE,,FALSE,FALSE,,FALSE,FALSE,FALSE,,OPEN: 24 hours,,TRUE,TRUE,FALSE,FALSE,FALSE,TRUE,FALSE,FALSE,Free gas bbq available,FALSE,FALSE,FALSE,FALSE,FALSE
355,https://toiletmap.gov.au/facility/355,Blenheim Community Park,Park or reserve,Laidley Mount Berryman Road,Blenheim,QLD,,-27.65032691,152.3303678,TRUE,TRUE,Parking area is unsealed,FALSE,FALSE,FALSE,FALSE,,FALSE,FALSE,FALSE,FALSE,FALSE,,FALSE,FALSE,,FALSE,FALSE,FALSE,,OPEN: 24 hours,,TRUE,TRUE,FALSE,FALSE,FALSE,TRUE,FALSE,FALSE,,TRUE,FALSE,FALSE,FALSE,FALSE
356,https://toiletmap.gov.au/facility/356,Centenary Park,Camping ground,Mulgowie Road,Thornton,QLD,,-27.79803861,152.3738276,TRUE,TRUE,,FALSE,FALSE,FALSE,FALSE,,FALSE,FALSE,FALSE,FALSE,FALSE,,FALSE,FALSE,,FALSE,FALSE,FALSE,,OPEN: 24 hours,,TRUE,TRUE,FALSE,FALSE,FALSE,TRUE,FALSE,FALSE,Laundry room is supplied. The park is dog friendly. Free electric bbq available. Camping permitted.,FALSE,FALSE,FALSE,FALSE,TRUE
357,https://toiletmap.gov.au/facility/357,William Street,Other,William Street,Laidley,QLD,,-27.63173499,152.3943637,TRUE,TRUE,,FALSE,FALSE,FALSE,FALSE,,FALSE,FALSE,FALSE,FALSE,FALSE,,FALSE,FALSE,,FALSE,FALSE,FALSE,,OPEN: 24 hours,,TRUE,TRUE,FALSE,FALSE,FALSE,TRUE,FALSE,FALSE,,TRUE,FALSE,TRUE,FALSE,FALSE
358,https://toiletmap.gov.au/facility/358,Whites Road,Sporting facility,Whites Road,Laidley,QLD,,-27.63375324,152.3969021,TRUE,FALSE,,FALSE,FALSE,FALSE,FALSE,,FALSE,FALSE,FALSE,FALSE,FALSE,,FALSE,FALSE,,FALSE,FALSE,FALSE,,OPEN: Daylight hours,,TRUE,TRUE,FALSE,FALSE,FALSE,FALSE,FALSE,FALSE,,TRUE,FALSE,FALSE,FALSE,FALSE
359,https://toiletmap.gov.au/facility/359,Laidley Cemetery,Cemetery,6 Southern Street,Laidley,QLD,,-27.65471664,152.4053587,TRUE,FALSE,,FALSE,FALSE,FALSE,FALSE,,FALSE,FALSE,FALSE,FALSE,FALSE,,FALSE,FALSE,,FALSE,FALSE,FALSE,,OPEN: 24 hours,,TRUE,TRUE,FALSE,FALSE,FALSE,TRUE,FALSE,FALSE,,FALSE,FALSE,FALSE,FALSE,FALSE
361,https://toiletmap.gov.au/facility/361,Rosewood - Laidley Road,Park or reserve,Rosewood - Laidley Road,Laidley,QLD,,-27.64911411,152.391921,TRUE,TRUE,,FALSE,FALSE,FALSE,FALSE,,FALSE,FALSE,FALSE,FALSE,FALSE,,FALSE,FALSE,,FALSE,FALSE,FALSE,,OPEN: 24 hours,,TRUE,TRUE,FALSE,FALSE,FALSE,TRUE,FALSE,FALSE,,TRUE,FALSE,FALSE,FALSE,FALSE
366,https://toiletmap.gov.au/facility/366,Burdekin Falls Dam Road,Car park,Burdekin Falls Dam Road,Crimea,QLD,,-19.87803512,146.6338995,TRUE,FALSE,,FALSE,FALSE,FALSE,FALSE,,FALSE,FALSE,FALSE,FALSE,FALSE,,FALSE,FALSE,,FALSE,FALSE,FALSE,,OPEN: 24 hours,,TRUE,TRUE,FALSE,FALSE,FALSE,FALSE,FALSE,FALSE,,FALSE,FALSE,TRUE,FALSE,FALSE
368,https://toiletmap.gov.au/facility/368,Burdekin Falls Dam Road,Other,Unnamed Road Ravenswood,Ravenswood,QLD,,-20.64141924,147.1466559,TRUE,FALSE,,FALSE,FALSE,FALSE,FALSE,,FALSE,FALSE,FALSE,FALSE,FALSE,,FALSE,FALSE,,FALSE,FALSE,FALSE,,OPEN: Variable hours,,TRUE,TRUE,FALSE,FALSE,FALSE,TRUE,FALSE,FALSE,,FALSE,FALSE,TRUE,FALSE,FALSE
371,https://toiletmap.gov.au/facility/371,Diamantina Developmental Road,Other,Brolga Street,Quilpie,QLD,,-26.61342333,144.2663188,FALSE,FALSE,,FALSE,FALSE,FALSE,FALSE,,FALSE,FALSE,FALSE,FALSE,FALSE,,FALSE,FALSE,,FALSE,FALSE,FALSE,,OPEN: 24 hours,,TRUE,TRUE,FALSE,FALSE,FALSE,TRUE,FALSE,FALSE,,FALSE,FALSE,FALSE,FALSE,FALSE
372,https://toiletmap.gov.au/facility/372,Mount Perry,Park or reserve,74 Heusman Street,Mount Perry,QLD,,-25.17554928,151.6413587,TRUE,FALSE,,FALSE,FALSE,FALSE,FALSE,,FALSE,FALSE,FALSE,FALSE,FALSE,,FALSE,FALSE,,FALSE,FALSE,FALSE,,OPEN: 24 hours,,TRUE,TRUE,FALSE,FALSE,FALSE,TRUE,FALSE,FALSE,,TRUE,FALSE,TRUE,FALSE,TRUE
373,https://toiletmap.gov.au/facility/373,Greenmount Bi-centennial Park,Park or reserve,11 Ramsay Street,Greenmount,QLD,,-27.78692666,151.9055689,FALSE,TRUE,,FALSE,FALSE,FALSE,FALSE,,FALSE,FALSE,FALSE,FALSE,FALSE,,FALSE,FALSE,,FALSE,FALSE,FALSE,,OPEN: 24 hours,,TRUE,TRUE,FALSE,FALSE,FALSE,TRUE,FALSE,FALSE,"Picnic shelter, electric BBQ, covered playground, basketball court, Ex-serviceman's Memorial",FALSE,FALSE,FALSE,FALSE,FALSE
374,https://toiletmap.gov.au/facility/374,Rudd Selection Tourist Attraction,Park or reserve,172 Steele Rudd Road,East Greenmount,QLD,,-27.78606953,151.9627849,TRUE,FALSE,,FALSE,FALSE,FALSE,FALSE,,FALSE,FALSE,FALSE,FALSE,FALSE,,FALSE,FALSE,,FALSE,FALSE,FALSE,,OPEN: 24 hours,,TRUE,TRUE,FALSE,FALSE,FALSE,TRUE,TRUE,FALSE,"Information hut, replica shingle hut, electric BBQ and picnic shelter.",FALSE,FALSE,FALSE,FALSE,FALSE
375,https://toiletmap.gov.au/facility/375,Cambooya Recreation Reserve,Park or reserve,Lucy Street,Cambooya,QLD,,-27.71054936,151.8648502,TRUE,TRUE,,TRUE,FALSE,FALSE,FALSE,,FALSE,FALSE,FALSE,FALSE,FALSE,,FALSE,FALSE,,FALSE,FALSE,FALSE,,OPEN: Variable hours,Toilets only open during sporting events.,TRUE,TRUE,FALSE,FALSE,FALSE,TRUE,FALSE,FALSE,"Clubhouse, shelter shed, cricket ground, swings, BMX track and skate park (across the street), cattle yards and fenced arena",FALSE,FALSE,FALSE,FALSE,FALSE
376,https://toiletmap.gov.au/facility/376,Memorial Park,Park or reserve,Ramsay Street,Cambooya,QLD,,-27.70653478,151.8635252,TRUE,TRUE,,FALSE,FALSE,FALSE,FALSE,,FALSE,FALSE,FALSE,FALSE,FALSE,,FALSE,FALSE,,FALSE,FALSE,FALSE,,OPEN: 24 hours,,TRUE,TRUE,FALSE,FALSE,FALSE,TRUE,FALSE,FALSE,"Picnic shelter, electric BBQ, playground equipment, bus shelter and Ex-serviceman's Memorial",FALSE,FALSE,FALSE,FALSE,FALSE
377,https://toiletmap.gov.au/facility/377,Paterson Park,Park or reserve,38 George Street,Cambooya,QLD,,-27.70558615,151.8671388,TRUE,FALSE,,FALSE,FALSE,FALSE,FALSE,,FALSE,FALSE,FALSE,FALSE,FALSE,,FALSE,FALSE,,FALSE,FALSE,FALSE,,OPEN: 24 hours,,TRUE,TRUE,FALSE,FALSE,FALSE,FALSE,FALSE,FALSE,"Picnic shelter, wood BBQ's, covered playground equipment, basketball half-court, off-leash dog area (eastern side)",FALSE,FALSE,FALSE,FALSE,FALSE
378,https://toiletmap.gov.au/facility/378,Wyreema Park,Park or reserve,24 Umbiram Road,Wyreema,QLD,,-27.65663077,151.8589675,TRUE,TRUE,,FALSE,FALSE,FALSE,FALSE,,FALSE,FALSE,FALSE,FALSE,FALSE,,FALSE,FALSE,,FALSE,FALSE,FALSE,,OPEN: 24 hours,,TRUE,TRUE,FALSE,FALSE,FALSE,TRUE,FALSE,FALSE,"Picnic shelter, electric BBQ, covered playground equipment, cricket nets, tennis courts, skate park and sports ground area",FALSE,FALSE,FALSE,FALSE,FALSE
379,https://toiletmap.gov.au/facility/379,Lions Park,Park or reserve,12744 New England Highway,Hodgson Vale,QLD,,-27.64574699,151.9343781,TRUE,TRUE,,FALSE,FALSE,FALSE,FALSE,,FALSE,FALSE,FALSE,FALSE,FALSE,,TRUE,FALSE,,FALSE,FALSE,FALSE,,OPEN: 24 hours,,TRUE,TRUE,FALSE,FALSE,TRUE,TRUE,FALSE,TRUE,"Picnic shelters, electric BBQ's, playground equipment and half basketball court",TRUE,TRUE,TRUE,FALSE,FALSE
380,https://toiletmap.gov.au/facility/380,Farley Street,Other,Farley Street,Stanthorpe,QLD,,-28.65612669,151.9347216,FALSE,FALSE,,FALSE,FALSE,FALSE,FALSE,,FALSE,FALSE,FALSE,FALSE,FALSE,,FALSE,FALSE,,FALSE,FALSE,FALSE,,OPEN: 24 hours,,TRUE,TRUE,FALSE,FALSE,FALSE,TRUE,FALSE,FALSE,New toilet installed early 2010,FALSE,FALSE,FALSE,FALSE,FALSE
381,https://toiletmap.gov.au/facility/381,Stanthorpe Visitor Information Centre,Other,Leslie Parade,Stanthorpe,QLD,,-28.66141517,151.9336849,TRUE,FALSE,,FALSE,FALSE,FALSE,FALSE,,FALSE,FALSE,FALSE,FALSE,FALSE,,FALSE,FALSE,,FALSE,FALSE,FALSE,,OPEN: 9am-4pm,,TRUE,TRUE,FALSE,FALSE,FALSE,TRUE,FALSE,FALSE,,FALSE,FALSE,FALSE,FALSE,FALSE
382,https://toiletmap.gov.au/facility/382,Lions Area - Fred Rogers Memorial Park,Park or reserve,Maryland Street,Stanthorpe,QLD,,-28.65982808,151.9333276,FALSE,FALSE,,FALSE,FALSE,FALSE,FALSE,,FALSE,FALSE,FALSE,FALSE,FALSE,,FALSE,FALSE,,FALSE,FALSE,FALSE,,OPEN: 24 hours,,TRUE,TRUE,FALSE,FALSE,FALSE,TRUE,FALSE,FALSE,,FALSE,FALSE,FALSE,FALSE,FALSE
384,https://toiletmap.gov.au/facility/384,Brock Park,Park or reserve,High Street,Stanthorpe,QLD,,-28.64667123,151.9462808,FALSE,FALSE,,FALSE,FALSE,FALSE,FALSE,,FALSE,FALSE,FALSE,FALSE,FALSE,,FALSE,FALSE,,FALSE,FALSE,FALSE,,OPEN: 24 hours,,TRUE,TRUE,FALSE,FALSE,FALSE,FALSE,FALSE,FALSE,,FALSE,FALSE,FALSE,FALSE,FALSE
385,https://toiletmap.gov.au/facility/385,Weeroona Park,Park or reserve,Marsh Street,Stanthorpe,QLD,,-28.6527618,151.9332555,FALSE,FALSE,,FALSE,FALSE,FALSE,FALSE,,FALSE,FALSE,FALSE,FALSE,FALSE,,FALSE,FALSE,,FALSE,FALSE,FALSE,,OPEN: 24 hours,,TRUE,TRUE,FALSE,FALSE,FALSE,FALSE,FALSE,FALSE,,FALSE,FALSE,FALSE,FALSE,FALSE
386,https://toiletmap.gov.au/facility/386,Civic Centre,Other,Marsh Street,Stanthorpe,QLD,,-28.65410776,151.9338804,FALSE,FALSE,,FALSE,FALSE,FALSE,FALSE,,FALSE,FALSE,FALSE,FALSE,FALSE,,FALSE,FALSE,,FALSE,FALSE,FALSE,,OPEN: 6am-10pm,,TRUE,TRUE,FALSE,FALSE,FALSE,TRUE,FALSE,FALSE,,FALSE,FALSE,FALSE,FALSE,FALSE
387,https://toiletmap.gov.au/facility/387,Stanthorpe Cemetery,Cemetery,Darcy Street,Stanthorpe,QLD,,-28.645335,151.9333515,FALSE,FALSE,,FALSE,FALSE,FALSE,FALSE,,FALSE,FALSE,FALSE,FALSE,FALSE,,FALSE,FALSE,,FALSE,FALSE,FALSE,,OPEN: 24 hours,,TRUE,TRUE,FALSE,FALSE,FALSE,FALSE,FALSE,FALSE,,FALSE,FALSE,FALSE,FALSE,FALSE
388,https://toiletmap.gov.au/facility/388,Lions Park,Park or reserve,Wallangarra Road,Stanthorpe,QLD,,-28.67598206,151.9215864,FALSE,FALSE,,FALSE,FALSE,FALSE,FALSE,,FALSE,FALSE,FALSE,FALSE,FALSE,,FALSE,FALSE,,FALSE,FALSE,FALSE,,OPEN: 24 hours,,TRUE,TRUE,FALSE,FALSE,FALSE,TRUE,FALSE,FALSE,,FALSE,FALSE,FALSE,FALSE,FALSE
389,https://toiletmap.gov.au/facility/389,Storm King Dam,Other,Eukey Road,Storm King,QLD,,-28.71703036,151.9910224,FALSE,FALSE,,FALSE,FALSE,FALSE,FALSE,,FALSE,FALSE,FALSE,FALSE,FALSE,,FALSE,FALSE,,FALSE,FALSE,FALSE,,OPEN: 24 hours,,TRUE,TRUE,FALSE,FALSE,FALSE,FALSE,FALSE,FALSE,,FALSE,FALSE,FALSE,FALSE,FALSE
390,https://toiletmap.gov.au/facility/390,Lions Park,Park or reserve,New England Highway,Wallangarra,QLD,,-28.92163112,151.9282749,FALSE,FALSE,,FALSE,FALSE,FALSE,FALSE,,FALSE,FALSE,FALSE,FALSE,FALSE,,FALSE,FALSE,,FALSE,FALSE,FALSE,,OPEN: 24 hours,,TRUE,TRUE,FALSE,FALSE,FALSE,TRUE,FALSE,FALSE,,FALSE,FALSE,FALSE,FALSE,FALSE
391,https://toiletmap.gov.au/facility/391,Innot Hot Springs,Park or reserve,16018 Kennedy Highway,Innot Hot Springs,QLD,,-17.66717684,145.2373321,FALSE,FALSE,,FALSE,FALSE,FALSE,FALSE,,FALSE,FALSE,FALSE,FALSE,FALSE,,FALSE,FALSE,,FALSE,FALSE,FALSE,,OPEN: 24 hours,,TRUE,TRUE,FALSE,FALSE,FALSE,TRUE,FALSE,FALSE,,FALSE,FALSE,FALSE,FALSE,FALSE
393,https://toiletmap.gov.au/facility/393,William Street,Other,William Street,Herberton,QLD,,-17.38327675,145.3853889,FALSE,FALSE,,FALSE,FALSE,FALSE,FALSE,,FALSE,FALSE,FALSE,FALSE,FALSE,,TRUE,FALSE,,FALSE,FALSE,FALSE,,OPEN: 24 hours,,TRUE,TRUE,FALSE,FALSE,FALSE,TRUE,FALSE,FALSE,,FALSE,FALSE,TRUE,FALSE,FALSE
